original_Store name,original_Address,original_City,original_State,original_Petition File Date (from Store Name),original_NLRB Case Number(s),original_Store Status,original_Vote Count Date,lat,lon,formatted,name,housenumber,street,district,suburb,postcode,city,county,state,state_code,country,country_code,confidence,confidence_city_level,confidence_street_level,attribution,attribution_license,attribution_url
"Whitehall, MacArthur Road","2630 MacArthur Rd Suite 100, Whitehall, PA, 18052",Whitehall,PA,"10/30/2022, 8:00:00 PM",04-RC-306257,Union Win,"12/1/2022, 7:00:00 PM",40.645588450000005,-75.49426924345494,"Starbucks, 2630 MacArthur Road, Whitehall, PA 18052, United States of America",Starbucks,2630,MacArthur Road,,,18052,Whitehall,Lehigh County,Pennsylvania,PA,United States,us,1,1,1,© OpenStreetMap contributors,Open Database License,https://www.openstreetmap.org/copyright
Willow & Pfingsten,"2760 Willow Rd , Glenview, IL, 60062",Glenview,IL,"10/23/2022, 8:00:00 PM",13-RC-305812,Union Win,"12/5/2022, 7:00:00 PM",42.105785868313205,-87.84654397950874,"2760 Willow Road, Glenview, IL 60062, United States of America",,2760,Willow Road,,,60062,Glenview,Cook County,Illinois,IL,United States,us,1,1,1,© OpenStreetMap contributors,Open Database License,https://www.openstreetmap.org/copyright
S. Sammish Way & 36th St,"222 36th Street , Bellingham, WA, 98225",Bellingham,WA,"10/16/2022, 8:00:00 PM",19-RC-305402,Union Win,"11/30/2022, 7:00:00 PM",48.731202,-122.471219,"222 36th Street, Bellingham, WA 98225, United States of America",,222,36th Street,,,98225,Bellingham,Whatcom County,Washington,WA,United States,us,1,1,1,© OpenAddresses contributors,BSD-3-Clause License,
Auto Plaza Way & Main St,"2230 Main Street , Green Bay, WI, 54302",Green Bay,WI,"10/9/2022, 8:00:00 PM",18-RC-304934,Union Win,"11/28/2022, 7:00:00 PM",44.48381203571429,-87.97070396428572,"2230 Main Street, Green Bay, WI 54302, United States of America",,2230,Main Street,,,54302,Green Bay,Brown County,Wisconsin,WI,United States,us,1,1,1,© OpenStreetMap contributors,Open Database License,https://www.openstreetmap.org/copyright
Wedington and N Salem,"3500 Black Forrest Drive 1, Fayetteville, AR, 72704",Fayetteville,AR,"10/5/2022, 8:00:00 PM",15-RC-304743,Union Win,"11/13/2022, 7:00:00 PM",36.078206,-94.210263,"3500 West Black Forest Drive, Fayetteville, AR 72704, United States of America",,3500,West Black Forest Drive,,,72704,Fayetteville,Washington County,Arkansas,AR,United States,us,0.9,1,0.9,© OpenAddresses contributors,BSD-3-Clause License,
Broad & Spring Garden,"490 North Broad St. , Philadelphia, PA, 19123",Philadelphia,PA,"9/29/2022, 8:00:00 PM",04-RC-304399,Union Win,"11/3/2022, 8:00:00 PM",39.9612803,-75.1614807,"490 North Broad Street, Philadelphia, PA 19123, United States of America",,490,North Broad Street,,Center City,19123,Philadelphia,Philadelphia County,Pennsylvania,PA,United States,us,1,1,1,© OpenStreetMap contributors,Open Database License,https://www.openstreetmap.org/copyright
Courthouse Arlington,"2200 Clarendon Blvd , Arlington, VA, 22201",Arlington,VA,"9/28/2022, 8:00:00 PM",05-RC-304319,Union Win,"11/7/2022, 7:00:00 PM",38.8905063,-77.0857936,"2200 Clarendon Boulevard, Arlington, VA 22201, United States of America",,2200,Clarendon Boulevard,,Courthouse,22201,Arlington,Arlington County,Virginia,VA,United States,us,1,1,1,© OpenStreetMap contributors,Open Database License,https://www.openstreetmap.org/copyright
York & Industrial,"624 N. York Road Unit A, Elmhurst, IL, 60126",Elmhurst,IL,"9/21/2022, 8:00:00 PM",13-RC-303877,Union Win,"12/4/2022, 7:00:00 PM",41.90006,-87.939697,"105 North York Road, Elmhurst, IL 60126, United States of America",,105,North York Road,York Township,,60126,Elmhurst,DuPage County,Illinois,IL,United States,us,0.5,1,1,© OpenAddresses contributors,BSD-3-Clause License,
1604 & NW Military,"16852 NW Military Hwy , Shavano Park, TX, 78231",Shavano Park,TX,"9/20/2022, 8:00:00 PM",16-RC-303916,Union Win,"11/3/2022, 8:00:00 PM",29.599007450000002,-98.56274345,"Starbucks, 16852 Northwest Military Highway, Shavano Park, TX 78231, United States of America",Starbucks,16852,Northwest Military Highway,,,78231,Shavano Park,Bexar County,Texas,TX,United States,us,1,1,1,© OpenStreetMap contributors,Open Database License,https://www.openstreetmap.org/copyright
1144 Elliott Ave W - Seattle,"1144 Elliott Avenue West , Seattle, WA, 98119",Seattle,WA,"9/18/2022, 8:00:00 PM",19-RC-303680,Union Win,"11/16/2022, 7:00:00 PM",47.6298518,-122.37204827878568,"Starbucks, 1144 Elliott Avenue West, Seattle, WA 98119, United States of America",Starbucks,1144,Elliott Avenue West,,Queen Anne,98119,Seattle,King County,Washington,WA,United States,us,1,1,1,© OpenStreetMap contributors,Open Database License,https://www.openstreetmap.org/copyright
Irving Park & Ashland,"1601 W Irving Park Rd , Chicago, IL, 60613",Chicago,IL,"9/15/2022, 8:00:00 PM",13-RC-303517,Union Win,"10/24/2022, 8:00:00 PM",41.954205,-87.669212,"1601 West Irving Park Road, Chicago, IL 60613, United States of America",,1601,West Irving Park Road,,Lake View,60613,Chicago,Cook County,Illinois,IL,United States,us,1,1,1,© OpenStreetMap contributors,Open Database License,https://www.openstreetmap.org/copyright
Easton,"3712 Easton Nazareth Highway , Easton, PA, 18045",Easton,PA,"9/14/2022, 8:00:00 PM",04-RC-303427,Union Win,"10/19/2022, 8:00:00 PM",40.714982780309384,-75.28547106228889,"3712 Easton-Nazareth Highway, Lower Nazareth Township, PA 18045, United States of America",,3712,Easton-Nazareth Highway,,First 33 Commerce Center,18045,Lower Nazareth Township,Northampton County,Pennsylvania,PA,United States,us,1,1,1,© OpenStreetMap contributors,Open Database License,https://www.openstreetmap.org/copyright
Washington & Linden,"71 Washington Ave , Santa Clara, CA, 95050",Santa Clara,CA,"9/11/2022, 8:00:00 PM",32-RC-303284,Union Win,"10/20/2022, 8:00:00 PM",37.374488,-122.02217,"East Washington Avenue, Sunnyvale, CA, United States of America",,,East Washington Avenue,,,,Sunnyvale,Santa Clara County,California,CA,United States,us,0.315,0.9,0.63,© OpenStreetMap contributors,Open Database License,https://www.openstreetmap.org/copyright
New Scotland Avenue,"62 New Scotland Ave , Albany, NY, 12208",Albany,NY,"9/11/2022, 8:00:00 PM",03-RC-303114,Union Win,"10/27/2022, 8:00:00 PM",42.6522623,-73.7763674,"62 New Scotland Avenue, City of Albany, NY 12208, United States of America",,62,New Scotland Avenue,Park South,,12208,City of Albany,Albany County,New York,NY,United States,us,1,1,1,© OpenStreetMap contributors,Open Database License,https://www.openstreetmap.org/copyright
Eastview Mall,"7979 Pittsford-Victor Road , Victor, NY, 14564",Victor,NY,"8/31/2022, 8:00:00 PM",03-RC-302475,Union Win,"10/17/2022, 8:00:00 PM",43.03159154575,-77.44128281844445,"7979 Pittsford Victor Road, Victor, NY 14564, United States of America",,7979,Pittsford Victor Road,,,14564,Town of Victor,Ontario County,New York,NY,United States,us,1,1,1,© OpenStreetMap contributors,Open Database License,https://www.openstreetmap.org/copyright
Federal Street,"75-101 Federal Street , Boston, MA, 2110",Boston,MA,"8/28/2022, 8:00:00 PM",01-RC-302289,Union Win,"10/20/2022, 8:00:00 PM",42.355244400000004,-71.05693041374465,"75-101 Federal Street, 75 Federal Street, Boston, MA 02110, United States of America",75-101 Federal Street,75,Federal Street,Financial District,Downtown Boston,02110,Boston,Suffolk County,Massachusetts,MA,United States,us,0.9,1,1,© OpenStreetMap contributors,Open Database License,https://www.openstreetmap.org/copyright
1429 P Street,"1429 P Street, NW , Washington, DC, 20005",Washington,DC,"8/11/2022, 8:00:00 PM",05-RC-301836,Union Win,"9/29/2022, 8:00:00 PM",38.909858,-77.033091,"1429 P Street NW, Washington, DC 20005, United States of America",,1429,P Street NW,,Logan Circle,20005,Washington,District of Columbia,District of Columbia,DC,United States,us,0.9,1,0.9,© OpenAddresses contributors,BSD-3-Clause License,
22nd and South,"2201 South Street , Philadelphia, PA, 19146",Philadelphia,PA,"8/10/2022, 8:00:00 PM",04-RC-301198,Union Win,"10/24/2022, 8:00:00 PM",39.945371,-75.178718,"2201 South Street, Philadelphia, PA 19146, United States of America",,2201,South Street,Southwest Center City,South Philadelphia,19146,Philadelphia,Philadelphia County,Pennsylvania,PA,United States,us,1,1,1,© OpenStreetMap contributors,Open Database License,https://www.openstreetmap.org/copyright
HWY 75 & Regency Lane,"3121 Regency Lane , Denison, TX, 75020",Denison,TX,"8/8/2022, 8:00:00 PM",16-RC-301056,Union Win,"10/18/2022, 8:00:00 PM",33.761408849999995,-96.58357192533396,"Golden Chick, 3121 Regency Lane, Denison, TX 75020, United States of America",Golden Chick,3121,Regency Lane,,,75020,Denison,Grayson County,Texas,TX,United States,us,1,1,1,© OpenStreetMap contributors,Open Database License,https://www.openstreetmap.org/copyright
Hwy 34 BP & 11th Ave-Greeley,"2604 11th Ave , Greeley, CO, 80631",Greeley,CO,"8/4/2022, 8:00:00 PM",27-RC-300862,Union Win,"9/26/2022, 8:00:00 PM",40.39519816426757,-104.69678265840194,"2604 11th Avenue, Greeley, CO 80631, United States of America",,2604,11th Avenue,,,80631,Greeley,Weld County,Colorado,CO,United States,us,1,1,1,© OpenStreetMap contributors,Open Database License,https://www.openstreetmap.org/copyright
Telegraph & Maple,"6420 Telegraph Rd. , Bloomfield Twp, MI, 48301",Bloomfield Twp,MI,"7/28/2022, 8:00:00 PM",07-RC-300425,Union Win,"10/6/2022, 8:00:00 PM",42.54602791685014,-83.28535311250603,"6420 Telegraph Road, Bloomfield Township, MI 48301, United States of America",,6420,Telegraph Road,,,48301,Bloomfield Township,Oakland County,Michigan,MI,United States,us,1,1,1,© OpenStreetMap contributors,Open Database License,https://www.openstreetmap.org/copyright
S. Broadway and E. McCoy,"2430 S. Broadway Suite A, Santa Maria, CA, 93454",Santa Maria,CA,"7/21/2022, 8:00:00 PM",31-RC-300025,Union Win,"10/2/2022, 8:00:00 PM",34.91628778397552,-120.43579225590237,"2430 South Broadway, Santa Maria, CA 93454, United States of America",,2430,South Broadway,,,93454,Santa Maria,Santa Barbara County,California,CA,United States,us,1,1,1,© OpenStreetMap contributors,Open Database License,https://www.openstreetmap.org/copyright
US-127 & Pickard - Mt Pleasant,"5655 East Pickard St , Mt. Pleasant, MI, 48858",Mt. Pleasant,MI,"7/20/2022, 8:00:00 PM",07-RC-299855,Union Win,"9/11/2022, 8:00:00 PM",43.6117838,-84.7721015,"East Pickard Street, Mount Pleasant, MI 48858, United States of America",East Pickard Street,,East Pickard Street,,,48858,Mount Pleasant,Isabella County,Michigan,MI,United States,us,0.5,1,1,© OpenStreetMap contributors,Open Database License,https://www.openstreetmap.org/copyright
"Crocker Park Cafe, Westlake","269 Main Street N/A, Westlake, OH, 44145",Westlake,OH,"7/17/2022, 8:00:00 PM",08-RC-299575,Union Win,"9/28/2022, 8:00:00 PM",41.45627275155294,-81.9512982063009,"269 Main Street, Westlake, OH 44145, United States of America",,269,Main Street,,Crocker Park,44145,Westlake,Cuyahoga County,Ohio,OH,United States,us,1,1,1,© OpenStreetMap contributors,Open Database License,https://www.openstreetmap.org/copyright
Shepherd & Harold,"2801 S. Shepherd Drive , Houston, TX, 77098",Houston,TX,"7/17/2022, 8:00:00 PM",16-RC-299559,Union Win,"9/21/2022, 8:00:00 PM",29.74049905,-95.4104284371397,"Starbucks, 2801 South Shepherd Drive, Houston, TX 77098, United States of America",Starbucks,2801,South Shepherd Drive,Montrose,,77098,Houston,Harris County,Texas,TX,United States,us,1,1,1,© OpenStreetMap contributors,Open Database License,https://www.openstreetmap.org/copyright
W Hildebrand & Fredricksburg,"2202 Fredericksburg Rd , San Antonio, TX, 78201",San Antonio,TX,"7/14/2022, 8:00:00 PM",16-RC-299517,Union Win,"9/19/2022, 8:00:00 PM",29.4662455,-98.52754851796246,"Starbucks, 2202 Fredericksburg Road, San Antonio, TX 78201, United States of America",Starbucks,2202,Fredericksburg Road,Monticello Park,,78201,San Antonio,Bexar County,Texas,TX,United States,us,1,1,1,© OpenStreetMap contributors,Open Database License,https://www.openstreetmap.org/copyright
ABQ - Rio Grande and I-40,"1000 Rio Grande Blvd. , Albuquerque, NM, 87104",Albuquerque,NM,"7/10/2022, 8:00:00 PM",28-RC-299178,Union Win,"9/14/2022, 8:00:00 PM",35.103818,-106.670074,"1000 Rio Grande Boulevard NW, Albuquerque, NM 87104, United States of America",,1000,Rio Grande Boulevard NW,,,87104,Albuquerque,Bernalillo County,New Mexico,NM,United States,us,0.7,1,0.7,© OpenAddresses contributors,BSD-3-Clause License,
Crossgates Mall,"1 Crossgates Mall Road B231, Albany, NY, 12203",Albany,NY,"7/10/2022, 8:00:00 PM",03-RC-299064,Union Win,"9/18/2022, 8:00:00 PM",42.688836,-73.849017,"1 Crossgates Mall Road, Albany, NY 12203, United States of America",,1,Crossgates Mall Road,Guilderland,,12203,Albany,Albany County,New York,NY,United States,us,0.75,1,0.75,© OpenAddresses contributors,BSD-3-Clause License,
Peters Township,"4080 Washington Road , McMurray, PA, 15317",McMurray,PA,"7/6/2022, 8:00:00 PM",06-RC-298916,Union Win,"8/17/2022, 8:00:00 PM",40.26539659318519,-80.12979439832975,"4080 Washington Road, Peters Township, PA 15317, United States of America",,4080,Washington Road,,,15317,Peters Township,Washington County,Pennsylvania,PA,United States,us,1,1,1,© OpenStreetMap contributors,Open Database License,https://www.openstreetmap.org/copyright
Pioneer Parkway - Springfield,"1810 Pioneer Parkway W , Springfield, OR, 97477",Springfield,OR,"7/5/2022, 8:00:00 PM",19-RC-298772,Union Win,"9/19/2022, 8:00:00 PM",44.06262389340656,-123.02646240230283,"1810 Pioneer Parkway West, Springfield, OR 97477, United States of America",,1810,Pioneer Parkway West,,,97477,Springfield,Lane County,Oregon,OR,United States,us,1,1,1,© OpenStreetMap contributors,Open Database License,https://www.openstreetmap.org/copyright
Clifton Park Center,"309 Clifton Park Center Road Store #1, Clifton Park, NY, 12065",Clifton Park,NY,"7/4/2022, 8:00:00 PM",03-RC-298672,Union Win,"8/18/2022, 8:00:00 PM",42.8612217,-73.778996,"309 Clifton Park Center Road, Clifton Park, NY 12065, United States of America",,309,Clifton Park Center Road,,Clifton Park Center,12065,Town of Clifton Park,Saratoga County,New York,NY,United States,us,1,1,1,© OpenStreetMap contributors,Open Database License,https://www.openstreetmap.org/copyright
Forest Ave & Bard Ave,"480 Forest Ave , Staten Island, NY, 10310",Staten Island,NY,"6/26/2022, 8:00:00 PM",29-RC-298233,Union Win,"8/21/2022, 8:00:00 PM",40.63024985,-74.10629545603098,"480 Forest Avenue, New York, NY 10310, United States of America",,480,Forest Avenue,Sunset Hill,Staten Island,10310,New York,,New York,NY,United States,us,1,1,1,© OpenStreetMap contributors,Open Database License,https://www.openstreetmap.org/copyright
Wantagh,"1143 Wantagh Avenue , Wantagh, NY, 11793",Wantagh,NY,"6/26/2022, 8:00:00 PM",29-RC-298246,Union Win,"9/15/2022, 8:00:00 PM",40.6948217,-73.5069481959882,"1143 Wantagh Avenue, North Wantagh, NY 11793, United States of America",,1143,Wantagh Avenue,,,11793,North Wantagh,Nassau County,New York,NY,United States,us,1,1,1,© OpenStreetMap contributors,Open Database License,https://www.openstreetmap.org/copyright
I-35 & Walnut Ave,"697 Walnut Street , New Braunfels, TX, 78130",New Braunfels,TX,"6/21/2022, 8:00:00 PM",16-RC-298055,Union Win,"9/11/2022, 8:00:00 PM",29.7028266,-98.1257348,"New Braunfels, TX, United States of America",,,,,,,New Braunfels,Comal County,Texas,TX,United States,us,0.25,1,,© OpenStreetMap contributors,Open Database License,https://www.openstreetmap.org/copyright
"Columbia Turnpike, East Greenbush","600 Columbia Turnpike , East Greenbush, NY, 12061",East Greenbush,NY,"6/21/2022, 8:00:00 PM",03-RC-297980,Union Win,"8/24/2022, 8:00:00 PM",42.598290750000004,-73.70995203749072,"Subway, 600 Columbia Turnpike, East Greenbush CDP, NY 12061, United States of America",Subway,600,Columbia Turnpike,,,12061,East Greenbush CDP,Rensselaer County,New York,NY,United States,us,1,1,1,© OpenStreetMap contributors,Open Database License,https://www.openstreetmap.org/copyright
Niskayuna Shoprite Square,"2303 Nott Street East , Niskayuna, NY, 12309",Niskayuna,NY,"6/21/2022, 8:00:00 PM",03-RC-297987,Union Win,"8/4/2022, 8:00:00 PM",42.815720600000006,-73.89090848010756,"Starbucks, 2303 Nott Street East, Niskayuna, NY 12309, United States of America",Starbucks,2303,Nott Street East,,,12309,Town of Niskayuna,Schenectady County,New York,NY,United States,us,1,1,1,© OpenStreetMap contributors,Open Database License,https://www.openstreetmap.org/copyright
S Outer Rd & I-44,"1030 S 5th St, St Charles, MO 63301",St. Robert,MO,"6/20/2022, 8:00:00 PM",18-RC-297917,Union Win,"8/22/2022, 8:00:00 PM",38.773734,-90.490572,"1030 South 5th Street, St. Charles, MO 63301, United States of America",,1030,South 5th Street,Lindenwood Township,,63301,St. Charles,St. Charles County,Missouri,MO,United States,us,1,1,1,© OpenStreetMap contributors,Open Database License,https://www.openstreetmap.org/copyright
Bardstown & Heather,"3401 Bardstown Road , Louisville, KY, 40218",Louisville,KY,"6/20/2022, 8:00:00 PM",09-RC-297936,Union Win,"8/18/2022, 8:00:00 PM",38.20564865,-85.66615773474683,"Starbucks, 3401 Bardstown Road, Louisville, KY 40218, United States of America",Starbucks,3401,Bardstown Road,,,40218,Louisville,Jefferson County,Kentucky,KY,United States,us,1,1,1,© OpenStreetMap contributors,Open Database License,https://www.openstreetmap.org/copyright
Hampton Shoppes,"4655 William Flynn Highway 100, Allison Park, PA, 15101",Allison Park,PA,"6/20/2022, 8:00:00 PM",06-RC-297910,Union Win,"8/24/2022, 8:00:00 PM",40.591681,-79.948365,"4655 William Flinn Highway, Allison Park, PA 15101, United States of America",,4655,William Flinn Highway,Hampton Township,,15101,Allison Park,Allegheny County,Pennsylvania,PA,United States,us,0.45360000000000006,1,0.45360000000000006,© OpenStreetMap contributors,Open Database License,https://www.openstreetmap.org/copyright
Glenstone & Cherry,"631 S Glenstone Ave , Springfield, MO, 65802",Springfield,MO,"6/20/2022, 8:00:00 PM",14-RC-297893,Union Win,"8/24/2022, 8:00:00 PM",37.20311649624847,-93.26201949990588,"631 South Glenstone Avenue, Springfield, MO 65802, United States of America",,631,South Glenstone Avenue,Rountree/Walnut,,65802,Springfield,Greene County,Missouri,MO,United States,us,1,1,1,© OpenStreetMap contributors,Open Database License,https://www.openstreetmap.org/copyright
Montclair - Church & South Park,"40 South Park St , Montclair, NJ, 7042",Montclair,NJ,"6/15/2022, 8:00:00 PM",22-RC-297792,Union Win,"8/9/2022, 8:00:00 PM",40.8141092,-74.2200368,"40 South Park Street, Montclair, NJ 7042, United States of America",,40,South Park Street,Montclair Township,,7042,Montclair,Essex County,New Jersey,NJ,United States,us,1,1,1,,,
Edina - Hwy 100 and Industrial Blvd,"5122 Edina Industrial Blvd , Edina, MN, 55439",Edina,MN,"6/13/2022, 8:00:00 PM",18-RC-297566,Union Win,"8/17/2022, 8:00:00 PM",44.864205,-93.353864,"5122 Edina Industrial Boulevard, Edina, MN 55439, United States of America",,5122,Edina Industrial Boulevard,Cahill,,55439,Edina,Hennepin County,Minnesota,MN,United States,us,1,1,1,© OpenStreetMap contributors,Open Database License,https://www.openstreetmap.org/copyright
2224 Shattuck - Berkeley,"2224 Shattuck Avenue , Berkeley, CA, 94704",Berkeley,CA,"6/13/2022, 8:00:00 PM",32-RC-297553,Union Win,"8/21/2022, 8:00:00 PM",37.8689445294639,-122.26811853247641,"2224 Shattuck Avenue, Berkeley, CA 94704, United States of America",,2224,Shattuck Avenue,Downtown Berkeley,,94704,Berkeley,Alameda County,California,CA,United States,us,1,1,1,© OpenStreetMap contributors,Open Database License,https://www.openstreetmap.org/copyright
4094 18th St.,"4094 18th Street , San Francisco, CA, 94114",San Francisco,CA,"6/5/2022, 8:00:00 PM",20-RC-297117,Union Win,"8/15/2022, 8:00:00 PM",37.7610101,-122.4346633,"Starbucks, 4094 18th Street, San Francisco, CA 94114, United States of America",Starbucks,4094,18th Street,Castro District,,94114,San Francisco,,California,CA,United States,us,1,1,1,© OpenStreetMap contributors,Open Database License,https://www.openstreetmap.org/copyright
North Bend & Mt Si- North Bend,"721 SW Mt. Si Blvd B, North Bend, WA, 98045",North Bend,WA,"6/5/2022, 8:00:00 PM",19-RC-297142,Union Win,"8/7/2022, 8:00:00 PM",47.487325150000004,-121.7934442466373,"Starbucks, 721 Southwest Mount Si Boulevard, North Bend, WA 98045, United States of America",Starbucks,721,Southwest Mount Si Boulevard,,Mountain Valley Shopping Center,98045,North Bend,King County,Washington,WA,United States,us,0.9,1,0.9,© OpenStreetMap contributors,Open Database License,https://www.openstreetmap.org/copyright
Macadam Avenue,"6080 S Macadam , Portland, OR, 97239",Portland,OR,"6/5/2022, 8:00:00 PM",19-RC-297141,Union Win,"8/9/2022, 8:00:00 PM",45.479788,-122.67266,"6080 South Macadam Avenue, Portland, OR 97239, United States of America",,6080,South Macadam Avenue,,South Portland,97239,Portland,Multnomah County,Oregon,OR,United States,us,0.7,1,0.7,© OpenAddresses contributors,BSD-3-Clause License,
John T. Reid Pkwy. & County Park R,"23029 John T Reid Parkway , Scottsboro, AL, 35769",Scottsboro,AL,"6/5/2022, 8:00:00 PM",10-RC-297006,Union Win,"10/30/2022, 8:00:00 PM",34.6495283,-86.0300713,"23029 John T Reid Parkway, Scottsboro, AL, United States of America",,23029,John T Reid Parkway,,,,Scottsboro,Jackson County,Alabama,AL,United States,us,0.9,1,0.9,,,
1604 & Blanco Rd,"18154 Blanco Rd , San Antonio, TX, 78232",San Antonio,TX,"6/1/2022, 8:00:00 PM",16-RC-296944,Union Win,"8/4/2022, 8:00:00 PM",29.580889,-98.514441,"15150 Blanco Road, Hollywood Park, TX 78232, United States of America",,15150,Blanco Road,,Sonterra,78232,Hollywood Park,Bexar County,Texas,TX,United States,us,0.5,1,1,© OpenAddresses contributors,BSD-3-Clause License,
Hwy 17 & Middle Sound Loop,"7201 Market Street , Wilmington, NC, 28411",Wilmington,NC,"5/31/2022, 8:00:00 PM",10-RC-296802,Union Win,"8/22/2022, 8:00:00 PM",34.2731583,-77.8193649,"Starbucks, 7201 Market Street, Wilmington, NC 28411, United States of America",Starbucks,7201,Market Street,,,28411,Wilmington,New Hanover County,North Carolina,NC,United States,us,1,1,1,© OpenStreetMap contributors,Open Database License,https://www.openstreetmap.org/copyright
7707 McKnight Road,"7707 McKnight Rd , Pittsburgh, PA, 15237",Pittsburgh,PA,"5/30/2022, 8:00:00 PM",06-RC-296680,Union Win,"8/2/2022, 8:00:00 PM",40.54655085,-80.017903136485,"Starbucks, 7707 McKnight Road, Ross Township, PA 15237, United States of America",Starbucks,7707,McKnight Road,,,15237,Ross Township,Allegheny County,Pennsylvania,PA,United States,us,1,1,1,© OpenStreetMap contributors,Open Database License,https://www.openstreetmap.org/copyright
Clarksville - Veterans Pkwy & I-65,"1231 Veterans Parkway , Clarksville, IN, 47129",Clarksville,IN,"5/30/2022, 8:00:00 PM",09-RC-296739,Union Win,"7/28/2022, 8:00:00 PM",38.3287121,-85.760522,"Starbucks, 1231 Veterans Parkway, Clarksville, IN 47129, United States of America",Starbucks,1231,Veterans Parkway,,,47129,Clarksville,Clark County,Indiana,IN,United States,us,1,1,1,© OpenStreetMap contributors,Open Database License,https://www.openstreetmap.org/copyright
Hanley & Dale,"8023 Dale Avenue , Richmond Heights, MO, 63117",Richmond Heights,MO,"5/30/2022, 8:00:00 PM",14-RC-296784,Union Win,"8/9/2022, 8:00:00 PM",38.627751765998426,-90.33186255215655,"8023 Dale Avenue, Richmond Heights, MO 63117, United States of America",,8023,Dale Avenue,,,63117,Richmond Heights,Saint Louis County,Missouri,MO,United States,us,1,1,1,© OpenStreetMap contributors,Open Database License,https://www.openstreetmap.org/copyright
Broadway & Devon,"6350 North Broadway , Chicago, IL, 60660",Chicago,IL,"5/30/2022, 8:00:00 PM",13-RC-296747,Union Win,"8/18/2022, 8:00:00 PM",41.9979065,-87.6609190189944,"Starbucks, 6350 North Broadway, Chicago, IL 60660, United States of America",Starbucks,6350,North Broadway,Edgewater,Rogers Park,60660,Chicago,Cook County,Illinois,IL,United States,us,1,1,1,© OpenStreetMap contributors,Open Database License,https://www.openstreetmap.org/copyright
E Main and N Lewis,"1025 E Main St , Carbondale, IL, 62901",Carbondale,IL,"5/26/2022, 8:00:00 PM",14-RC-296646,Union Win,"8/10/2022, 8:00:00 PM",37.72841468844085,-89.20088719693061,"1025 East Main Street, Carbondale, IL 62901, United States of America",,1025,East Main Street,,,62901,Carbondale,Jackson County,Illinois,IL,United States,us,1,1,1,© OpenStreetMap contributors,Open Database License,https://www.openstreetmap.org/copyright
Lincoln & Jersey - Lincoln Village,"6075 N. Lincoln Ave. , Chicago, IL, 60659",Chicago,IL,"5/25/2022, 8:00:00 PM",13-RC-296481,Union Win,"8/2/2022, 8:00:00 PM",41.9929366,-87.710997,"Starbucks, 6075 North Lincoln Avenue, Chicago, IL 60659, United States of America",Starbucks,6075,North Lincoln Avenue,,North Park,60659,Chicago,Cook County,Illinois,IL,United States,us,1,1,1,© OpenStreetMap contributors,Open Database License,https://www.openstreetmap.org/copyright
Vestal Parkway,"2540 Vestal Parkway , Vestal, NY, 13850",Vestal,NY,"5/25/2022, 8:00:00 PM",03-RC-296460,Union Win,"8/23/2022, 8:00:00 PM",42.094500350000004,-76.00596463753712,"2540 Vestal Parkway East, Vestal, NY 13850, United States of America",,2540,Vestal Parkway East,,,13850,Town of Vestal,Broome County,New York,NY,United States,us,0.9,1,0.9,© OpenStreetMap contributors,Open Database License,https://www.openstreetmap.org/copyright
Commercial & Oakhill - Salem,"3904 Commercial Street SE , Salem, OR, 97302",Salem,OR,"5/25/2022, 8:00:00 PM",19-RC-296544,Union Win,"8/8/2022, 8:00:00 PM",44.900196,-123.038998,"3904 Commercial Street Southeast, Salem, OR 97302, United States of America",,3904,Commercial Street Southeast,,,97302,Salem,Marion County,Oregon,OR,United States,us,1,1,1,© OpenStreetMap contributors,Open Database License,https://www.openstreetmap.org/copyright
Mockingbird Station,"5331 E. Mockingbird Lane 150, Dallas, TX, 75206",Dallas,TX,"5/24/2022, 8:00:00 PM",16-RC-296428,Union Win,"8/7/2022, 8:00:00 PM",32.837844,-96.776171,"5331 East Mockingbird Lane, Dallas, TX 75206, United States of America",,5331,East Mockingbird Lane,,Greenville Ave,75206,Dallas,Dallas County,Texas,TX,United States,us,0.63,1,0.63,© OpenAddresses contributors,BSD-3-Clause License,
Cascade Marketplace,"210-21 Southbank Street , Sterling, VA, 20165",Sterling,VA,"5/23/2022, 8:00:00 PM",05-RC-296297,Union Win,"6/27/2022, 8:00:00 PM",39.004137,-77.403039,"Sterling, VA, United States of America",,,,,,,Sterling,Loudoun County,Virginia,VA,United States,us,0.25,1,,,,https://www.whosonfirst.org/docs/licenses/
Fairfax & Olympic,"6066 West Olympic Boulevard , Los Angeles, CA, 90036",Los Angeles,CA,"5/23/2022, 8:00:00 PM",31-RC-296439,Union Win,"8/2/2022, 8:00:00 PM",34.05799281632653,-118.36218489795918,"6066 West Olympic Boulevard, Los Angeles, CA 90036, United States of America",,6066,West Olympic Boulevard,Little Ethiopia,,90036,Los Angeles,Los Angeles County,California,CA,United States,us,1,1,1,© OpenStreetMap contributors,Open Database License,https://www.openstreetmap.org/copyright
Liberty & Baum - Courtyard,"5310 Liberty Avenue , Pittsburgh, PA, 15224",Pittsburgh,PA,"5/19/2022, 8:00:00 PM",06-RC-296143,Union Win,"7/25/2022, 8:00:00 PM",40.4557792,-79.9394926,"Starbucks, 5310 Liberty Avenue, Pittsburgh, PA 15224, United States of America",Starbucks,5310,Liberty Avenue,Bloomfield,,15224,Pittsburgh,Allegheny County,Pennsylvania,PA,United States,us,1,1,1,© OpenStreetMap contributors,Open Database License,https://www.openstreetmap.org/copyright
Iowa & University,"1303 University Avenue , Riverside, CA, 92507",Riverside,CA,"5/19/2022, 8:00:00 PM",21-RC-296247,Union Win,"7/28/2022, 8:00:00 PM",33.975773861292176,-117.34007995911723,"1303 University Avenue, Riverside, CA 92507, United States of America",,1303,University Avenue,,,92507,Riverside,Riverside County,California,CA,United States,us,1,1,1,© OpenStreetMap contributors,Open Database License,https://www.openstreetmap.org/copyright
Figueroa & Cypress,"3241 N Figueroa Street , Los Angeles, CA, 90065",Los Angeles,CA,"5/18/2022, 8:00:00 PM",31-RC-296098,Union Win,"8/1/2022, 8:00:00 PM",34.085917959183675,-118.21985414285714,"3241 N Figueroa Street, Los Angeles, CA 90065, United States of America",,3241,N Figueroa Street,Dayton Avenue,Lincoln Heights,90065,Los Angeles,Los Angeles County,California,CA,United States,us,1,1,1,© OpenStreetMap contributors,Open Database License,https://www.openstreetmap.org/copyright
Lenwood Road & Mercantile Way,"2489 Lenwood Blvd. , Barstow, CA, 92311",Barstow,CA,"5/16/2022, 8:00:00 PM",31-RC-295959,Union Win,"7/26/2022, 8:00:00 PM",34.8957684,-117.0172077,"Barstow, CA, United States of America",,,,,,,Barstow,San Bernardino County,California,CA,United States,us,0.25,1,,© OpenStreetMap contributors,Open Database License,https://www.openstreetmap.org/copyright
Greengate Centre,"2540 Greengate Centre Circle , Greensburg, PA, 15601",Greensburg,PA,"5/15/2022, 8:00:00 PM",06-RC-295875,Union Win,"6/20/2022, 8:00:00 PM",40.3014581,-79.5389289,"Greensburg, PA 15601, United States of America",,,,,,15601,Greensburg,Westmoreland County,Pennsylvania,PA,United States,us,0.25,1,,© OpenStreetMap contributors,Open Database License,https://www.openstreetmap.org/copyright
Bolsa & Edwards,"6502 Bolsa Avenue #101, Huntington Beach, CA, 92647",Huntington Beach,CA,"5/11/2022, 8:00:00 PM",21-RC-295771,Union Win,"7/21/2022, 8:00:00 PM",33.744260448944104,-118.015529771097,"6502 Bolsa Avenue, Huntington Beach, CA 92655, United States of America",,6502,Bolsa Avenue,,,92655,Huntington Beach,Orange County,California,CA,United States,us,1,1,1,© OpenStreetMap contributors,Open Database License,https://www.openstreetmap.org/copyright
Alfred St,"360 Alfred St , Biddeford, ME, 4005",Biddeford,ME,"5/11/2022, 8:00:00 PM",01-RC-295712,Union Win,"7/13/2022, 8:00:00 PM",43.4831319,-70.4724121,"Starbucks, 360 Alfred Street, Biddeford, ME 04005, United States of America",Starbucks,360,Alfred Street,Five Points,,04005,Biddeford,York County,Maine,ME,United States,us,1,1,1,© OpenStreetMap contributors,Open Database License,https://www.openstreetmap.org/copyright
Vernon,"135 Talcottville Road , Vernon, CT, 6066",Vernon,CT,"5/11/2022, 8:00:00 PM",01-RC-295710,Union Win,"7/13/2022, 8:00:00 PM",41.8304357,-72.4959314,"135 Talcottville Road, Vernon, CT 06066, United States of America",,135,Talcottville Road,,,06066,Vernon,Tolland County,Connecticut,CT,United States,us,1,1,1,© OpenStreetMap contributors,Open Database License,https://www.openstreetmap.org/copyright
Cordata Center,"4303 Guide Meridian 101, Bellingham, WA, 98226",Bellingham,WA,"5/8/2022, 8:00:00 PM",19-RC-295481,Union Win,"7/5/2022, 8:00:00 PM",48.7544012,-122.478836,"Bellingham, WA, United States of America",,,,,,,Bellingham,Whatcom County,Washington,WA,United States,us,0.5,1,,© OpenStreetMap contributors,Open Database License,https://www.openstreetmap.org/copyright
4th and 4th,"421 E 400 S. , Salt Lake City, UT, 84111",Salt Lake City,UT,"5/8/2022, 8:00:00 PM",27-RC-295440,Union Win,"7/18/2022, 8:00:00 PM",40.760939,-111.878884,"421 East 400 South, Salt Lake City, UT 84111, United States of America",,421,East 400 South,,Central City,84111,Salt Lake City,Salt Lake County,Utah,UT,United States,us,1,1,1,© OpenAddresses contributors,BSD-3-Clause License,
North Perryville & Olde Creek,"3001 North Perryville Road , Rockford, IL, 61114",Rockford,IL,"5/8/2022, 8:00:00 PM",25-RC-295476,Union Win,"7/20/2022, 8:00:00 PM",42.3050402,-88.9785654,"Starbucks, 3001 North Perryville Road, Rockford, IL 61114, United States of America",Starbucks,3001,North Perryville Road,,,61114,Rockford,Winnebago County,Illinois,IL,United States,us,1,1,1,© OpenStreetMap contributors,Open Database License,https://www.openstreetmap.org/copyright
Farmingville-North Ocean Ave.,"2280 North Ocean Ave. B, Farmingville, NY, 11738",Farmingville,NY,"5/2/2022, 8:00:00 PM",29-RC-295055,Union Win,"7/25/2022, 8:00:00 PM",40.8260314,-73.0212196,"Starbucks, 2280 North Ocean Avenue, Farmingville, NY 11738, United States of America",Starbucks,2280,North Ocean Avenue,,,11738,Farmingville,Suffolk County,New York,NY,United States,us,0.9,1,0.9,© OpenStreetMap contributors,Open Database License,https://www.openstreetmap.org/copyright
Shelburne Road,"580 Shelburne Road #9 , South Burlington, VT, 5401",South Burlington,VT,"5/1/2022, 8:00:00 PM",03-RC-294985,Union Win,"7/13/2022, 8:00:00 PM",44.448125295454545,-73.20935768181818,"580 Shelburne Road, Burlington, VT 05401, United States of America",,580,Shelburne Road,,,05401,Burlington,Chittenden County,Vermont,VT,United States,us,1,1,1,© OpenStreetMap contributors,Open Database License,https://www.openstreetmap.org/copyright
Madison Park,"4000 East Madison St , Seattle, WA, 98112",Seattle,WA,"5/1/2022, 8:00:00 PM",19-RC-294994,Union Win,"6/29/2022, 8:00:00 PM",47.6341227,-122.2807886,"4000 East Madison Street, Seattle, WA 98112, United States of America",,4000,East Madison Street,Canterbury,Madison Park,98112,Seattle,King County,Washington,WA,United States,us,1,1,1,© OpenStreetMap contributors,Open Database License,https://www.openstreetmap.org/copyright
Clackamas Crossing,"9610 SE 82nd Avenue , Happy Valley, OR, 97086",Happy Valley,OR,"5/1/2022, 8:00:00 PM",19-RC-295057,Union Win,"7/7/2022, 8:00:00 PM",45.428679,-122.497174,"Happy Valley, OR 97086, United States of America",,,,,,97086,Happy Valley,Clackamas County,Oregon,OR,United States,us,0.25,1,,© OpenStreetMap contributors,Open Database License,https://www.openstreetmap.org/copyright
Ansley Mall,"1544 Piedmont Rd NE # 232, Atlanta, GA, 30324",Atlanta,GA,"5/1/2022, 8:00:00 PM",10-RC-294986,Union Win,"6/21/2022, 8:00:00 PM",33.8184064,-84.3670604,"Piedmont Road Northeast, Atlanta, GA 30324, United States of America",Piedmont Road Northeast,,Piedmont Road Northeast,Lindbergh,,30324,Atlanta,Fulton County,Georgia,GA,United States,us,0.5,1,1,© OpenStreetMap contributors,Open Database License,https://www.openstreetmap.org/copyright
East Amherst,"9660 Transit Road 101, East Amherst, NY, 14051",East Amherst,NY,"4/27/2022, 8:00:00 PM",03-RC-294786,Union Win,"7/10/2022, 8:00:00 PM",43.032183310867765,-78.69705176577777,"9660 Transit Road, Amherst, NY 14051, United States of America",,9660,Transit Road,,,14051,Town of Amherst,Erie County,New York,NY,United States,us,0.6666666666666667,1,0.6666666666666667,© OpenStreetMap contributors,Open Database License,https://www.openstreetmap.org/copyright
4147 University Way Avenue,"4147 University Way NE , Seattle, WA, 98105",Seattle,WA,"4/25/2022, 8:00:00 PM",19-RC-294701,Union Win,"6/27/2022, 8:00:00 PM",47.658195,-122.3134196,"Starbucks, 4147 University Way Northeast, Seattle, WA 98105, United States of America",Starbucks,4147,University Way Northeast,West Campus,University District,98105,Seattle,King County,Washington,WA,United States,us,1,1,1,© OpenStreetMap contributors,Open Database License,https://www.openstreetmap.org/copyright
Cusick & Alcoa,"121 Cusick Rd , Alcoa, TN, 37701",Alcoa,TN,"4/25/2022, 8:00:00 PM",10-RC-294680,Union Win,"7/10/2022, 8:00:00 PM",35.81236344793294,-83.98222466605105,"121 Cusick Road, Alcoa, TN 37701, United States of America",,121,Cusick Road,,,37701,Alcoa,Blount County,Tennessee,TN,United States,us,1,1,1,© OpenStreetMap contributors,Open Database License,https://www.openstreetmap.org/copyright
Oregon Trail - Gresham,"2233 E Burnside RD , Gresham, OR, 97030",Gresham,OR,"4/21/2022, 8:00:00 PM",19-RC-294563,Union Win,"6/27/2022, 8:00:00 PM",45.49865,-122.409582,"2233 NE Burnside Road, Gresham, OR 97030, United States of America",,2233,NE Burnside Road,,,97030,Gresham,Multnomah County,Oregon,OR,United States,us,1,1,1,© OpenAddresses contributors,BSD-3-Clause License,
Hwy 141 & I-44,"922 South Meramec Station Rd., A, Valley Park, MO, 63088",Valley Park,MO,"4/21/2022, 8:00:00 PM","21-CA-294059,14-CA-296355,14-RC-294493",Union Win,"7/6/2022, 8:00:00 PM",38.536619,-90.496528,"922 Meramec Station Road, Valley Park, MO 63088, United States of America",,922,Meramec Station Road,Queeny Township,,63088,Valley Park,St. Louis County,Missouri,MO,United States,us,0.81,1,0.81,© OpenAddresses contributors,BSD-3-Clause License,
Stuyvesant Plaza,"1475 Western Avenue , Albany, NY, 12203",Albany,NY,"4/20/2022, 8:00:00 PM",03-RC-294402,Union Win,"6/6/2022, 8:00:00 PM",42.6825254,-73.8384474,"1475 Western Avenue, Guilderland, NY 12203, United States of America",,1475,Western Avenue,,,12203,Town of Guilderland,Albany County,New York,NY,United States,us,1,1,1,© OpenStreetMap contributors,Open Database License,https://www.openstreetmap.org/copyright
"Gardner, W. Broadway","308 West Broadway 1, Gardner, MA, 1440",Gardner,MA,"4/20/2022, 8:00:00 PM",01-RC-294409,Union Win,"6/22/2022, 8:00:00 PM",42.561466,-71.991186,"308 West Broadway, Gardner, MA 01440, United States of America",,308,West Broadway,Gardner,,01440,Gardner,Worcester County,Massachusetts,MA,United States,us,0.96875,1,1,© OpenAddresses contributors,BSD-3-Clause License,
U of A at University & Euclid,"802-804 E. University Blvd. , Tucson, AZ, 85719",Tucson,AZ,"4/18/2022, 8:00:00 PM",28-RC-294327,Union Win,"7/5/2022, 8:00:00 PM",32.231583842728746,-110.9593023647853,"802 East University Boulevard, Tucson, AZ 85719, United States of America",,802,East University Boulevard,West University,,85719,Tucson,Pima County,Arizona,AZ,United States,us,1,1,1,© OpenStreetMap contributors,Open Database License,https://www.openstreetmap.org/copyright
Eastside,"5932 Penn Circle South , Pittsburgh, PA, 15206",Pittsburgh,PA,"4/18/2022, 8:00:00 PM",06-RC-294253,Union Win,"6/15/2022, 8:00:00 PM",40.459973,-79.924189,"6018 Penn Circle South, Pittsburgh, PA, United States of America",,6018,Penn Circle South,Pittsburgh,East Liberty,,Pittsburgh,Allegheny County,Pennsylvania,PA,United States,us,0.5,1,1,© OpenStreetMap contributors,Open Database License,https://www.openstreetmap.org/copyright
7700 Maple Street,"7700 Maple Street , New Orleans, LA, 70118",New Orleans,LA,"4/18/2022, 8:00:00 PM",15-RC-294263,Union Win,"6/3/2022, 8:00:00 PM",29.94179075,-90.12976039605263,"Starbucks, 7700 Maple Street, New Orleans, LA 70118, United States of America",Starbucks,7700,Maple Street,Leonidas,Greenville,70118,New Orleans,Orleans Parish,Louisiana,LA,United States,us,1,1,1,© OpenStreetMap contributors,Open Database License,https://www.openstreetmap.org/copyright
East Robinson @ Niagara Falls Blvd,"3015 Niagara Falls Blvd. , Amherst, NY, 14228",Amherst,NY,"4/17/2022, 8:00:00 PM",03-RC-294186,Union Win,"4/17/2022, 8:00:00 PM",43.0368336,-78.8227348,"Starbucks, 3015 Niagara Falls Boulevard, Amherst, NY 14228, United States of America",Starbucks,3015,Niagara Falls Boulevard,,,14228,Town of Amherst,Erie County,New York,NY,United States,us,1,1,1,© OpenStreetMap contributors,Open Database License,https://www.openstreetmap.org/copyright
Nanuet,"126 West Rockland Plaza , Nanuet, NY, 10954",Nanuet,NY,"4/14/2022, 8:00:00 PM",02-RC-294088,Union Win,"6/2/2022, 8:00:00 PM",41.098796,-74.014753,"126 Rockland Plaza, Nanuet, NY 10954, United States of America",,126,Rockland Plaza,Clarkstown,,10954,Nanuet,Rockland County,New York,NY,United States,us,0.9,1,0.9,© OpenAddresses contributors,BSD-3-Clause License,
Iowa & King - Bellingham,"814 Iowa St , Bellingham, WA, 98225",Bellingham,WA,"4/14/2022, 8:00:00 PM",19-RC-294187,Union Win,"6/23/2022, 8:00:00 PM",48.75636228571428,-122.46457542857144,"814 Iowa Street, Bellingham, WA 98225, United States of America",,814,Iowa Street,Roosevelt,,98225,Bellingham,Whatcom County,Washington,WA,United States,us,1,1,1,© OpenStreetMap contributors,Open Database License,https://www.openstreetmap.org/copyright
20th Street and 3rd Ave.,"308 20th St South Suite 100, Birmingham, AL, 35233",Birmingham,AL,"4/14/2022, 8:00:00 PM",10-RC-294065,Union Win,"5/25/2022, 8:00:00 PM",33.50977726267854,-86.80262359319778,"308 20th Street South, Birmingham, AL 35233, United States of America",,308,20th Street South,Automotive Historic District,,35233,Birmingham,Jefferson County,Alabama,AL,United States,us,1,1,1,© OpenStreetMap contributors,Open Database License,https://www.openstreetmap.org/copyright
Gallery Shopping Center at Westbury,"914 Old Country Road , Garden City, NY, 11530",Garden City,NY,"4/13/2022, 8:00:00 PM",29-RC-294141,Union Win,"6/9/2022, 8:00:00 PM",40.7444,-73.6039462,"914 Old Country Road, Garden City, NY, United States of America",,914,Old Country Road,Hempstead,,,Garden City,Nassau County,New York,NY,United States,us,1,1,1,© OpenAddresses contributors,BSD-3-Clause License,
Penn Center East,"3464 William Penn Highway , Pittsburgh, PA, 15235",Pittsburgh,PA,"4/13/2022, 8:00:00 PM",06-RC-294100,Union Win,"6/15/2022, 8:00:00 PM",40.43020885714285,-79.81226207142856,"3464 William Penn Highway, Wilkins Township, PA 15235, United States of America",,3464,William Penn Highway,,,15235,Wilkins Township,Allegheny County,Pennsylvania,PA,United States,us,1,1,1,© OpenStreetMap contributors,Open Database License,https://www.openstreetmap.org/copyright
Westerville,"533 South State Street , Westerville, OH, 43081",Westerville,OH,"4/13/2022, 8:00:00 PM",09-RC-294225,Union Win,"6/28/2022, 8:00:00 PM",40.1122542,-82.9266578,"533 South State Street, Westerville, OH 43081, United States of America",,533,South State Street,,,43081,Westerville,Franklin County,Ohio,OH,United States,us,1,1,1,© OpenStreetMap contributors,Open Database License,https://www.openstreetmap.org/copyright
Mall of America - First Level,"164 E. Broadway Suite E164, Bloomington, MN, 55425",Bloomington,MN,"4/13/2022, 8:00:00 PM",18-RC-294052,Union Win,"6/21/2022, 8:00:00 PM",44.8546166,-93.2406773,"Starbucks, 164 East Broadway, Bloomington, MN 55425, United States of America",Starbucks,164,East Broadway,,,55425,Bloomington,Hennepin County,Minnesota,MN,United States,us,1,1,1,© OpenStreetMap contributors,Open Database License,https://www.openstreetmap.org/copyright
Williamsburg Reserve,"154 N Seventh St , Brooklyn, NY, 11211",Brooklyn,NY,"4/13/2022, 8:00:00 PM",29-RC-294160,Union Win,"6/20/2022, 8:00:00 PM",40.652256,-73.956582,"Brooklyn, New York, NY, United States of America",Brooklyn,,,Brooklyn,,,New York,Kings County,New York,NY,United States,us,0.25,1,,,,https://www.whosonfirst.org/docs/licenses/
31st St & Ditmars Blvd- Astoria,"22-28 31st St , Astoria, NY, 11105",Astoria,NY,"4/13/2022, 8:00:00 PM",29-RC-294146,Union Win,"6/29/2022, 8:00:00 PM",40.775708449999996,-73.91172330866081,"22-28 31st Street, New York, NY 11105, United States of America",,22-28,31st Street,Steinway,Queens,11105,New York,,New York,NY,United States,us,1,1,1,© OpenStreetMap contributors,Open Database License,https://www.openstreetmap.org/copyright
Carpenter Rd.,"3650 Carpenter Rd. , Pittsfield, MI, 48104",Pittsfield,MI,"4/12/2022, 8:00:00 PM",07-RC-293990,Union Win,"6/16/2022, 8:00:00 PM",42.2371342,-83.6811047772319,"3650 Carpenter Road, Pittsfield Township, MI 48160, United States of America",,3650,Carpenter Road,,,48160,Pittsfield Township,Washtenaw County,Michigan,MI,United States,us,0.9,0.9,0.9,© OpenStreetMap contributors,Open Database License,https://www.openstreetmap.org/copyright
12th & Walnut,"1128 Walnut St , Philadelphia, PA, 19107",Philadelphia,PA,"4/12/2022, 8:00:00 PM",04-RC-293959,Union Win,"6/20/2022, 8:00:00 PM",39.94877,-75.1604539,"Starbucks, 1128 Walnut Street, Philadelphia, PA 19107, United States of America",Starbucks,1128,Walnut Street,Gayborhood,Center City,19107,Philadelphia,Philadelphia County,Pennsylvania,PA,United States,us,1,1,1,© OpenStreetMap contributors,Open Database License,https://www.openstreetmap.org/copyright
Northland & Richmond,"631 W. Northland Ave. , Appleton, WI, 54911",Appleton,WI,"4/12/2022, 8:00:00 PM",18-RC-294019,Union Win,"6/15/2022, 8:00:00 PM",44.28720238095238,-88.41490780952381,"631 West Northland Avenue, Appleton, WI 54911, United States of America",,631,West Northland Avenue,Erb Park,,54911,Appleton,Outagamie County,Wisconsin,WI,United States,us,1,1,1,© OpenStreetMap contributors,Open Database License,https://www.openstreetmap.org/copyright
Oyster Point Shoppes,"340 Oyster Point Road , Newport News, VA, 23602",Newport News,VA,"4/11/2022, 8:00:00 PM",05-RC-293910,Union Win,"5/18/2022, 8:00:00 PM",37.104918,-76.508536,"340 Oyster Point Road, Wendwood, VA 23602, United States of America",,340,Oyster Point Road,,,23602,Wendwood,City of Newport News,Virginia,VA,United States,us,1,1,1,© OpenAddresses contributors,BSD-3-Clause License,
4th and Vine,"401 Vine Street , Cincinnati, OH, 45202",Cincinnati,OH,"4/11/2022, 8:00:00 PM",09-RC-293893,Union Win,"6/22/2022, 8:00:00 PM",39.100064,-84.512803,"401 Vine Street, Cincinnati, OH 45202, United States of America",,401,Vine Street,Main Street Historic District,Central Business District,45202,Cincinnati,Hamilton County,Ohio,OH,United States,us,1,1,1,© OpenStreetMap contributors,Open Database License,https://www.openstreetmap.org/copyright
Ridge & Clark,"5964 N. Ridge Avenue , Chicago, IL, 60660",Chicago,IL,"4/11/2022, 8:00:00 PM",13-RC-293883,Union Win,"5/24/2022, 8:00:00 PM",41.990163276335885,-87.67110744066264,"5964 North Ridge Avenue, Chicago, IL 60660, United States of America",,5964,North Ridge Avenue,Edgewater,Edgewater,60660,Chicago,Cook County,Illinois,IL,United States,us,1,1,1,© OpenStreetMap contributors,Open Database License,https://www.openstreetmap.org/copyright
Corbin's Corner,"1449B New Britain Ave , West Hartford, CT, 6110",West Hartford,CT,"4/11/2022, 8:00:00 PM",01-RC-293992,Union Win,"6/8/2022, 8:00:00 PM",41.726354,-72.759596,"1449 New Britain Avenue, West Hartford, CT 06110, United States of America",,1449,New Britain Avenue,West Hartford,,06110,West Hartford,Hartford County,Connecticut,CT,United States,us,0.95,1,1,© OpenAddresses contributors,BSD-3-Clause License,
3rd and Columbine-Cherry Creek,"250 Columbine 160, Denver, CO, 80206",Denver,CO,"4/11/2022, 8:00:00 PM",27-RC-293880,Union Win,"6/12/2022, 8:00:00 PM",39.72074,-104.956875,"250 North Columbine Street, Denver, CO 80206, United States of America",,250,North Columbine Street,,Cherry Creek,80206,Denver,Denver County,Colorado,CO,United States,us,0.81,1,0.81,© OpenAddresses contributors,BSD-3-Clause License,
Lakewood Crossing - Marysville,"17101 27th Avenue NE A, Marysville, WA, 98271",Marysville,WA,"4/11/2022, 8:00:00 PM",19-RC-293932,Union Win,"6/20/2022, 8:00:00 PM",48.051704,-122.188067,"6601 27th Avenue, Marysville, WA 98271, United States of America",,6601,27th Avenue,,,98271,Marysville,Snohomish County,Washington,WA,United States,us,0.405,1,0.81,© OpenAddresses contributors,BSD-3-Clause License,
"Hwy 111 & Jefferson, La Quinta","79845 Highway 111 104, La Quinta, CA, 92253",La Quinta,CA,"4/10/2022, 8:00:00 PM",21-RC-293884,Union Win,"6/21/2022, 8:00:00 PM",33.703638,-116.281078,"79295 Highway 111, La Quinta, CA 92253, United States of America",,79295,Highway 111,,,92253,La Quinta,Riverside County,California,CA,United States,us,0.33333333333333337,1,0.6666666666666667,© OpenAddresses contributors,BSD-3-Clause License,
Nottingham Square Shopping Center,"5350 Campbell Boulevard Suite A, White Marsh, MD, 21236",White Marsh,MD,"4/5/2022, 8:00:00 PM",05-RC-293696,Union Win,"5/31/2022, 8:00:00 PM",39.367844,-76.449817,"5350 Campbell Boulevard, White Marsh, MD 21236, United States of America",,5350,Campbell Boulevard,Nottingham,,21236,White Marsh,Baltimore County,Maryland,MD,United States,us,1,1,1,© OpenAddresses contributors,BSD-3-Clause License,
"50 E & Thompson Creek, Kent Island","450 Thompson Creek Rd , Stevensville, MD, 21666",Stevensville,MD,"4/5/2022, 8:00:00 PM",05-RC-293590,Union Win,"5/31/2022, 8:00:00 PM",38.976177899999996,-76.31279558435438,"Starbucks, 450 Thompson Creek Road, Stevensville, MD 21666, United States of America",Starbucks,450,Thompson Creek Road,,,21666,Stevensville,Queen Anne's County,Maryland,MD,United States,us,1,1,1,© OpenStreetMap contributors,Open Database License,https://www.openstreetmap.org/copyright
Garden of the Gods at Centennial,"4465 Centennial Blvd. , Colorado Springs, CO, 80907",Colorado Springs,CO,"4/5/2022, 8:00:00 PM",27-RC-293572,Union Win,"6/7/2022, 8:00:00 PM",38.895962855024436,-104.85084174809047,"4465 Centennial Boulevard, Colorado Springs, CO 80907, United States of America",,4465,Centennial Boulevard,,,80907,Colorado Springs,El Paso County,Colorado,CO,United States,us,1,1,1,© OpenStreetMap contributors,Open Database License,https://www.openstreetmap.org/copyright
450 Thompson Creek,"450 Thompson Creek Road , Stevensville, MD,",Stevensville,MD,"4/5/2022, 8:00:00 PM",05-RC-293590,Union Win,"5/31/2022, 8:00:00 PM",38.976177899999996,-76.31279558435438,"Starbucks, 450 Thompson Creek Road, Stevensville, MD 21666, United States of America",Starbucks,450,Thompson Creek Road,,,21666,Stevensville,Queen Anne's County,Maryland,MD,United States,us,1,1,1,© OpenStreetMap contributors,Open Database License,https://www.openstreetmap.org/copyright
Route 1 Bel Air Plaza,"563 Baltimore Pike , Bel Air, MD, 21014",Bel Air,MD,"4/5/2022, 8:00:00 PM",05-RC-293573,Union Win,"5/31/2022, 8:00:00 PM",39.52754485,-76.35282967373868,"Starbucks, 563 Baltimore Pike, Bel Air, MD 21014, United States of America",Starbucks,563,Baltimore Pike,Wakefield Manor,,21014,Bel Air,Harford County,Maryland,MD,United States,us,1,1,1,© OpenStreetMap contributors,Open Database License,https://www.openstreetmap.org/copyright
16806 Georgia Ave - Olney,"16806 Georgia Avenue , Olney, MD, 20832",Olney,MD,"4/5/2022, 8:00:00 PM",05-RC-293687,Union Win,"5/19/2022, 8:00:00 PM",39.1320444,-77.0715164,"Starbucks, 16806 Georgia Avenue, Olney, MD 20832, United States of America",Starbucks,16806,Georgia Avenue,Oakdale,,20832,Olney,Montgomery County,Maryland,MD,United States,us,1,1,1,© OpenStreetMap contributors,Open Database License,https://www.openstreetmap.org/copyright
University Dr & Carroll Blvd,"401 W University Dr , Denton, TX, 76201",Denton,TX,"4/4/2022, 8:00:00 PM",16-RC-293512,Union Win,"6/29/2022, 8:00:00 PM",33.2302197,-97.1361102,"401 West University Drive, Denton, TX 76201, United States of America",,401,West University Drive,,,76201,Denton,Denton County,Texas,TX,United States,us,1,1,1,© OpenStreetMap contributors,Open Database License,https://www.openstreetmap.org/copyright
Pride Drive & Blowing Rock Road,"1700 Blowing Rock Road , Boone, NC, 28607",Boone,NC,"4/3/2022, 8:00:00 PM",10-RC-293398,Union Win,"4/29/2022, 8:00:00 PM",36.19945415,-81.65972485,"Starbucks, 1700 Blowing Rock Road, Boone, NC 28607, United States of America",Starbucks,1700,Blowing Rock Road,,,28607,Boone,Watauga County,North Carolina,NC,United States,us,1,1,1,© OpenStreetMap contributors,Open Database License,https://www.openstreetmap.org/copyright
East Carson Street,"1400 East Carson Street , Pittsburgh, PA, 15203",Pittsburgh,PA,"4/3/2022, 8:00:00 PM",06-RC-293429,Union Win,"5/30/2022, 8:00:00 PM",40.428682800000004,-79.98402703843125,"Starbucks, 1400 East Carson Street, Pittsburgh, PA 15203, United States of America",Starbucks,1400,East Carson Street,South Side Flats,,15203,Pittsburgh,Allegheny County,Pennsylvania,PA,United States,us,1,1,1,© OpenStreetMap contributors,Open Database License,https://www.openstreetmap.org/copyright
443 Boylston Street,"443 Boylston Street , Boston, MA, 2116",Boston,MA,"4/3/2022, 8:00:00 PM",01-RC-293421,Union Win,"6/8/2022, 8:00:00 PM",42.3515915,-71.0730410830408,"443 Boylston Street, Boston, MA 02116, United States of America",,443,Boylston Street,,Back Bay,02116,Boston,Suffolk County,Massachusetts,MA,United States,us,1,1,1,© OpenStreetMap contributors,Open Database License,https://www.openstreetmap.org/copyright
Hampton and Wise,"1216 Hampton Avenue , St Louis, MO, 63139",St Louis,MO,"4/3/2022, 8:00:00 PM",14-RC-293479,Union Win,"6/16/2022, 8:00:00 PM",38.6277535,-90.2871219,"Starbucks, 1216 Hampton Avenue, Saint Louis, MO 63139, United States of America",Starbucks,1216,Hampton Avenue,Cheltenham,,63139,Saint Louis,,Missouri,MO,United States,us,1,1,1,© OpenStreetMap contributors,Open Database License,https://www.openstreetmap.org/copyright
Highland Dr and Fort Union Blvd,"7025 S Highland Drive , Cottonwood Heights, UT, 84121",Cottonwood Heights,UT,"4/3/2022, 8:00:00 PM",27-RC-293438,Union Win,"6/9/2022, 8:00:00 PM",40.623407,-111.833943,"7025 South Highland Drive, Cottonwood Heights, UT 84121, United States of America",,7025,South Highland Drive,,,84121,Cottonwood Heights,Salt Lake County,Utah,UT,United States,us,1,1,1,© OpenAddresses contributors,BSD-3-Clause License,
36th & May,"3616 N May Avenue , Oklahoma City, OK, 73112",Oklahoma City,OK,"4/3/2022, 8:00:00 PM",14-RC-293408,Union Win,"6/13/2022, 8:00:00 PM",35.506831238636366,-97.565773,"3616 North May Avenue, Oklahoma City, OK 73112, United States of America",,3616,North May Avenue,,,73112,Oklahoma City,Oklahoma County,Oklahoma,OK,United States,us,1,1,1,© OpenStreetMap contributors,Open Database License,https://www.openstreetmap.org/copyright
Kings & Chippewa,"3700 South Kingshighway Blvd , St. Louis, MO, 63109",St. Louis,MO,"4/3/2022, 8:00:00 PM",14-RC-293441,Union Win,"6/15/2022, 8:00:00 PM",38.5924959,-90.2721842,"Starbucks, 3700 South Kingshighway Boulevard, Saint Louis, MO 63109, United States of America",Starbucks,3700,South Kingshighway Boulevard,Tower Grove South,,63109,Saint Louis,,Missouri,MO,United States,us,1,1,1,© OpenStreetMap contributors,Open Database License,https://www.openstreetmap.org/copyright
N. Center Dr & Tomahawk Island Dr,"12235 N. Center Ave , Portland, OR, 97217",Portland,OR,"3/29/2022, 8:00:00 PM",19-RC-293238,Union Win,"6/6/2022, 8:00:00 PM",45.6112943,-122.68011782556118,"Starbucks, 12235 North Center Avenue, Portland, OR 97217, United States of America",Starbucks,12235,North Center Avenue,,Hayden Island,97217,Portland,Multnomah County,Oregon,OR,United States,us,1,1,1,© OpenStreetMap contributors,Open Database License,https://www.openstreetmap.org/copyright
Capitol Square - Main & MLK,"1 E Main St , Madison, WI, 53703",Madison,WI,"3/29/2022, 8:00:00 PM",18-RC-293286,Union Win,"6/29/2022, 8:00:00 PM",43.0738397,-89.38236260662012,"One East Main at Block89, 1 East Main Street, Madison, WI 53703, United States of America",One East Main at Block89,1,East Main Street,First Settlement,,53703,Madison,Dane County,Wisconsin,WI,United States,us,1,1,1,© OpenStreetMap contributors,Open Database License,https://www.openstreetmap.org/copyright
Lindbergh & Clayton,"1500 S. Lindbergh Blvd. , Ladue, MO, 63131",Ladue,MO,"3/29/2022, 8:00:00 PM",14-RC-293254,Union Win,"6/12/2022, 8:00:00 PM",38.632503,-90.404846,"1500 South Lindbergh Boulevard, Ladue, MO 63131, United States of America",,1500,South Lindbergh Boulevard,Clayton Township,Acme Heights,63131,Ladue,St. Louis County,Missouri,MO,United States,us,1,1,1,© OpenAddresses contributors,BSD-3-Clause License,
Latham Plaza,"1210 Troy Schenectady Road , Latham, NY, 12110",Latham,NY,"3/29/2022, 8:00:00 PM",03-RC-293138,Union Win,"5/16/2022, 8:00:00 PM",42.7357184,-73.7216712,"1210 Troy Schenectady Road, Latham, NY 12110, United States of America",,1210,Troy Schenectady Road,Colonie,,12110,Latham,Albany County,New York,NY,United States,us,1,1,1,,,
"Worcester, East Central Street","11 East Central Street , Worcester, MA, 1605",Worcester,MA,"3/27/2022, 8:00:00 PM",01-RC-292949,Union Win,"6/2/2022, 8:00:00 PM",42.266273,-71.794218,"11 East Central Street, Worcester, MA 01605, United States of America",,11,East Central Street,Central Business District,,01605,Worcester,Worcester County,Massachusetts,MA,United States,us,1,1,1,© OpenStreetMap contributors,Open Database License,https://www.openstreetmap.org/copyright
23rd & Ousdahl,"1731 W 23rd Street , Lawrence, KS, 66046",Lawrence,KS,"3/27/2022, 8:00:00 PM",14-RC-293092,Union Win,"6/6/2022, 8:00:00 PM",38.94246355,-95.25631754935259,"Starbucks, 1731 West 23rd Street, Lawrence, KS 66046, United States of America",Starbucks,1731,West 23rd Street,,,66046,Lawrence,Douglas County,Kansas,KS,United States,us,1,1,1,© OpenStreetMap contributors,Open Database License,https://www.openstreetmap.org/copyright
Westford Valley Marketplace,"174 Littleton Road , Westford, MA, 1886",Westford,MA,"3/27/2022, 8:00:00 PM",01-RC-292964,Union Win,"6/2/2022, 8:00:00 PM",42.566413,-71.422007,"174 Littleton Road, Westford, MA 01886, United States of America",,174,Littleton Road,Westford,,01886,Westford,Middlesex County,Massachusetts,MA,United States,us,1,1,1,© OpenAddresses contributors,BSD-3-Clause License,
"Capitol Blvd & Trosper St, Tumwat","5300 Capitol Blvd SE , Tumwater, WA, 98501",Tumwater,WA,"3/27/2022, 8:00:00 PM",19-RC-293041,Union Win,"6/6/2022, 8:00:00 PM",47.001574,-122.910694,"5109 Capitol Boulevard SE, Olympia, WA 98501, United States of America",,5109,Capitol Boulevard SE,,,98501,Olympia,Thurston County,Washington,WA,United States,us,0.5,1,1,© OpenStreetMap contributors,Open Database License,https://www.openstreetmap.org/copyright
Armitage & Hoyne - Bucktown,"2101 W. Armitage Avenue , Chicago, IL, 60647",Chicago,IL,"3/27/2022, 8:00:00 PM",13-RC-293064,Union Win,"6/13/2022, 8:00:00 PM",41.917621,-87.680258,"2101 West Armitage Avenue, Chicago, IL 60647, United States of America",,2101,West Armitage Avenue,Bucktown,Logan Square,60647,Chicago,Cook County,Illinois,IL,United States,us,1,1,1,© OpenStreetMap contributors,Open Database License,https://www.openstreetmap.org/copyright
874 Commonwealth Avenue,"874 Commonwealth Ave , Brookline, MA, 2215",Brookline,MA,"3/27/2022, 8:00:00 PM",01-RC-292965,Union Win,"6/2/2022, 8:00:00 PM",42.3506736261432,-71.11357877693007,"874 Commonwealth Avenue, Boston, MA 02215, United States of America",,874,Commonwealth Avenue,,Allston,02215,Boston,Suffolk County,Massachusetts,MA,United States,us,1,1,1,© OpenStreetMap contributors,Open Database License,https://www.openstreetmap.org/copyright
Clares & 41st Capitola,"1955 41st Avenue Space A-1, Capitola, CA, 95010",Capitola,CA,"3/24/2022, 8:00:00 PM",32-RC-292934,Union Win,"6/5/2022, 8:00:00 PM",36.977853,-121.966951,"1955 41st Avenue, Capitola, CA 95010, United States of America",,1955,41st Avenue,,Arana Gulch,95010,Capitola,Santa Cruz County,California,CA,United States,us,0.4,1,0.4,© OpenAddresses contributors,BSD-3-Clause License,
Katella & Anaheim,"131 E. Katella Ave., Suite 10 , Anaheim, CA, 92802",Anaheim,CA,"3/23/2022, 8:00:00 PM",21-RC-292957,Union Win,"6/8/2022, 8:00:00 PM",33.803419,-117.90614866630932,"131 East Katella Avenue, Anaheim, CA 92802, United States of America",,131,East Katella Avenue,,Anaheim Resort District,92802,Anaheim,Orange County,California,CA,United States,us,1,1,1,© OpenStreetMap contributors,Open Database License,https://www.openstreetmap.org/copyright
Mitchell Hammock & City Plaza,"305 Mitchell Hammock Road , Oviedo, FL, 32765",Oviedo,FL,"3/23/2022, 8:00:00 PM",12-RC-292836,Union Win,"6/8/2022, 8:00:00 PM",28.655511,-81.214141,"305 Mitchell Hammock Road, Oviedo, FL 32765, United States of America",,305,Mitchell Hammock Road,,,32765,Oviedo,Seminole County,Florida,FL,United States,us,1,1,1,© OpenStreetMap contributors,Open Database License,https://www.openstreetmap.org/copyright
Downtown Disney Store,"1570 S. Disneyland Drive Suite 105, Anaheim, CA, 92802",Anaheim,CA,"3/23/2022, 8:00:00 PM",21-RC-292951,Union Win,"6/15/2022, 8:00:00 PM",33.8086008,-117.922276,"Jamba, 1570 South Disneyland Drive, Anaheim, CA 92802, United States of America",Jamba,1570,South Disneyland Drive,,,92802,Anaheim,Orange County,California,CA,United States,us,1,1,1,© OpenStreetMap contributors,Open Database License,https://www.openstreetmap.org/copyright
Tremont-South End,"627 Tremont St Retail Space #1, Boston, MA, 2118",Boston,MA,"3/22/2022, 8:00:00 PM",01-RC-292803,Union Win,"7/19/2022, 8:00:00 PM",42.3554334,-71.060511,"Boston, MA, United States of America",,,,,,,Boston,Suffolk County,Massachusetts,MA,United States,us,0.25,1,,© OpenStreetMap contributors,Open Database License,https://www.openstreetmap.org/copyright
Craig Street/Oakland,"425 South Craig Street , Pittsburgh, PA, 15213",Pittsburgh,PA,"3/22/2022, 8:00:00 PM",06-RC-292767,Union Win,"6/27/2022, 8:00:00 PM",40.44501531264918,-79.94863300565322,"425 South Craig Street, Pittsburgh, PA 15213, United States of America",,425,South Craig Street,Bellefield,,15213,Pittsburgh,Allegheny County,Pennsylvania,PA,United States,us,1,1,1,© OpenStreetMap contributors,Open Database License,https://www.openstreetmap.org/copyright
Market Square,"7 Market Square , Pittsburgh, PA, 15222",Pittsburgh,PA,"3/22/2022, 8:00:00 PM",06-RC-292760,Union Win,"5/25/2022, 8:00:00 PM",40.44045035906681,-80.0025361068233,"7 Market Square, Pittsburgh, PA 15222, United States of America",,7,Market Square,Downtown,Downtown,15222,Pittsburgh,Allegheny County,Pennsylvania,PA,United States,us,1,1,1,© OpenStreetMap contributors,Open Database License,https://www.openstreetmap.org/copyright
41st & Main,"4101 Main Street , Kansas City, MO, 64111",Kansas City,MO,"3/21/2022, 8:00:00 PM",14-RC-292753,Union Win,"6/21/2022, 8:00:00 PM",39.0512462,-94.58598765151902,"Starbucks, 4101 Main Street, Kansas City, MO 64111, United States of America",Starbucks,4101,Main Street,Southmoreland,Westport,64111,Kansas City,Jackson County,Missouri,MO,United States,us,1,1,1,© OpenStreetMap contributors,Open Database License,https://www.openstreetmap.org/copyright
I-85 and Clemson Boulevard,"4686 Clemson Boulevard , Anderson, SC, 29621",Anderson,SC,"3/21/2022, 8:00:00 PM",10-RC-292644,Union Win,"5/30/2022, 8:00:00 PM",34.5773161173009,-82.71329100195449,"4686 Clemson Boulevard, Sandy Springs, SC 29621, United States of America",,4686,Clemson Boulevard,,,29621,Sandy Springs,Anderson County,South Carolina,SC,United States,us,1,1,1,© OpenStreetMap contributors,Open Database License,https://www.openstreetmap.org/copyright
88 East Broad,"88 East Broad Street , Columbus, OH, 43215",Columbus,OH,"3/21/2022, 8:00:00 PM",09-RC-292683,Union Win,"5/23/2022, 8:00:00 PM",39.9631725,-82.99843,"88 East Broad Street, Columbus, OH 43215, United States of America",,88,East Broad Street,,Downtown,43215,Columbus,Franklin County,Ohio,OH,United States,us,1,1,1,© OpenStreetMap contributors,Open Database License,https://www.openstreetmap.org/copyright
5835 Leetsdale,"5835 Leetsdale Drive , Denver, CO, 80224",Denver,CO,"3/21/2022, 8:00:00 PM",27-RC-292681,Union Win,"5/18/2022, 8:00:00 PM",39.70682935754068,-104.92026665498122,"5835 Leetsdale Drive, Denver, CO 80224, United States of America",,5835,Leetsdale Drive,,,80224,Denver,,Colorado,CO,United States,us,1,1,1,© OpenStreetMap contributors,Open Database License,https://www.openstreetmap.org/copyright
St Anthony - 37th & Silver Lake Rd,"3704 Silver Lake Rd NE , St. Anthony, MN, 55421",St. Anthony,MN,"3/21/2022, 8:00:00 PM",18-RC-292716,Union Win,"6/5/2022, 8:00:00 PM",45.036953,-93.218561,"3704 Silver Lake Road Northeast, St. Anthony, MN 55421, United States of America",,3704,Silver Lake Road Northeast,,,55421,St. Anthony,Ramsey County,Minnesota,MN,United States,us,1,1,1,© OpenStreetMap contributors,Open Database License,https://www.openstreetmap.org/copyright
45th & N. Lamar,"4400 N Lamar Ste 104, Austin, TX, 78756",Austin,TX,"3/20/2022, 8:00:00 PM",16-RC-292620,Union Win,"6/2/2022, 8:00:00 PM",30.31239,-97.738854,"4400 North Lamar Boulevard, Austin, TX 78756, United States of America",,4400,North Lamar Boulevard,,Triangle State,78756,Austin,Travis County,Texas,TX,United States,us,0.7,1,0.7,© OpenAddresses contributors,BSD-3-Clause License,
Westmoreland,"7001 SE Milwaukee Ave , Portland, OR, 97202",Portland,OR,"3/17/2022, 8:00:00 PM",19-RC-292533,Union Win,"5/23/2022, 8:00:00 PM",45.473622,-122.648883,"7001 SE Milwaukie Avenue, Portland, OR 97202, United States of America",,7001,SE Milwaukie Avenue,,Sellwood-Moreland,97202,Portland,Multnomah County,Oregon,OR,United States,us,0.7999999999999999,1,0.7999999999999999,© OpenAddresses contributors,BSD-3-Clause License,
Astoria Blvd & 31st St,"30-18 Astoria Blvd , Astoria, NY, 11102",Astoria,NY,"3/17/2022, 8:00:00 PM",29-RC-292481,Union Win,"6/5/2022, 8:00:00 PM",40.7700243,-73.9184252,"30-18 Astoria Boulevard, New York, NY 11102, United States of America",,30-18,Astoria Boulevard,Astoria,Queens,11102,New York,,New York,NY,United States,us,1,1,1,© OpenStreetMap contributors,Open Database License,https://www.openstreetmap.org/copyright
Milwaukie Marketplace,"10826 SE Oak Street , Milwaukie, OR, 97222",Milwaukie,OR,"3/17/2022, 8:00:00 PM",19-RC-292533,Union Win,"5/23/2022, 8:00:00 PM",45.4438972,-122.6276296,"Starbucks, 10826 Southeast Oak Street, Milwaukie, OR 97222, United States of America",Starbucks,10826,Southeast Oak Street,,Lake Road,97222,Milwaukie,Clackamas County,Oregon,OR,United States,us,1,1,1,© OpenStreetMap contributors,Open Database License,https://www.openstreetmap.org/copyright
2344 Eastlake,"2344 Eastlake Ave E , Seattle, WA, 98102",Seattle,WA,"3/17/2022, 8:00:00 PM",19-RC-292503,Union Win,"5/26/2022, 8:00:00 PM",47.64102389999999,-122.32555431594785,"Starbucks, 2344 Eastlake Avenue East, Seattle, WA 98102, United States of America",Starbucks,2344,Eastlake Avenue East,Eastlake,,98102,Seattle,King County,Washington,WA,United States,us,1,1,1,© OpenStreetMap contributors,Open Database License,https://www.openstreetmap.org/copyright
23rd & Robinson,"132 NW 23rd Street , Oklahoma City, OK, 73103",Oklahoma City,OK,"3/16/2022, 8:00:00 PM",14-RC-292446,Union Win,"5/30/2022, 8:00:00 PM",35.49313138290321,-97.51507192822262,"132 Northwest 23rd Street, Oklahoma City, OK 73103, United States of America",,132,Northwest 23rd Street,,,73103,Oklahoma City,Oklahoma County,Oklahoma,OK,United States,us,1,1,1,© OpenStreetMap contributors,Open Database License,https://www.openstreetmap.org/copyright
Houston & St. Mary's,"200 E. Houston St. , San Antonio, TX, 78205",San Antonio,TX,"3/15/2022, 8:00:00 PM",16-RC-292335,Union Win,"6/20/2022, 8:00:00 PM",29.426382,-98.491192,"200 East Houston Street, San Antonio, TX 78205, United States of America",,200,East Houston Street,,Downtown,78205,San Antonio,Bexar County,Texas,TX,United States,us,1,1,1,© OpenStreetMap contributors,Open Database License,https://www.openstreetmap.org/copyright
University Circle - UH,"11302 Euclid Avenue , Cleveland, OH, 44106",Cleveland,OH,"3/15/2022, 8:00:00 PM",08-RC-292577,Union Win,"7/21/2022, 8:00:00 PM",41.5081621,-81.6059739,"Citizens Bank University Circle, 11302 Euclid Avenue, Cleveland, OH 44106, United States of America",Citizens Bank University Circle,11302,Euclid Avenue,Uptown,,44106,Cleveland,Cuyahoga County,Ohio,OH,United States,us,1,1,1,© OpenStreetMap contributors,Open Database License,https://www.openstreetmap.org/copyright
Millwood Ave & Butler St,"3009 Millwood Ave. Suite 100, Columbia, SC, 29205",Columbia,SC,"3/15/2022, 8:00:00 PM",10-RC-292341,Union Win,"5/25/2022, 8:00:00 PM",34.001569302131685,-80.99829918134678,"3009 Millwood Avenue, Columbia, SC 29205, United States of America",,3009,Millwood Avenue,,,29205,Columbia,Richland County,South Carolina,SC,United States,us,1,1,1,© OpenStreetMap contributors,Open Database License,https://www.openstreetmap.org/copyright
LaGrange and Factory,"12911 Factory Lane , Louisville, KY, 40245",Louisville,KY,"3/15/2022, 8:00:00 PM",09-RC-292370,Union Win,"5/25/2022, 8:00:00 PM",38.2891491,-85.5109129,"Starbucks, 12911 Factory Lane, Louisville, KY 40245, United States of America",Starbucks,12911,Factory Lane,,,40245,Louisville,Jefferson County,Kentucky,KY,United States,us,1,1,1,© OpenStreetMap contributors,Open Database License,https://www.openstreetmap.org/copyright
2nd & Central,"138 S. Central Avenue , Los Angeles, CA, 90012",Los Angeles,CA,"3/14/2022, 8:00:00 PM",21-RC-292310,Union Win,"5/22/2022, 8:00:00 PM",34.048592,-118.2390565,"138 South Central Avenue, Los Angeles, CA 90012, United States of America",,138,South Central Avenue,,Downtown,90012,Los Angeles,Los Angeles County,California,CA,United States,us,1,1,1,© OpenStreetMap contributors,Open Database License,https://www.openstreetmap.org/copyright
52 Curtiss Pkwy,"52 Curtiss Pkwy , Miami Springs, FL, 33166",Miami Springs,FL,"3/13/2022, 8:00:00 PM",12-RC-292183,Union Win,"5/9/2022, 8:00:00 PM",25.8218219,-80.2813458,"52 Curtiss Parkway, Miami Springs, FL 33166, United States of America",,52,Curtiss Parkway,,Miami Springs,33166,,Miami-Dade County,Florida,FL,United States,us,1,1,1,© OpenStreetMap contributors,Open Database License,https://www.openstreetmap.org/copyright
Gallows and Gatehouse,"3046 Gatehouse Plaza , Falls Church, VA, 22042",Falls Church,VA,"3/13/2022, 8:00:00 PM",05-RC-292283,Union Win,"4/21/2022, 8:00:00 PM",38.865024,-77.197125,"West Falls Church, VA 22042, United States of America",22042,,,,,22042,West Falls Church,Fairfax County,Virginia,VA,United States,us,0.25,1,,,,https://www.whosonfirst.org/docs/licenses/
Kingston Pike & Montvue,"7803 Montvue Center Way , Knoxville, TN, 37919",Knoxville,TN,"3/13/2022, 8:00:00 PM",10-RC-292148,Union Win,"5/25/2022, 8:00:00 PM",35.9603948,-83.9210261,"Knoxville, TN, United States of America",,,,,,,Knoxville,Knox County,Tennessee,TN,United States,us,0.25,1,,© OpenStreetMap contributors,Open Database License,https://www.openstreetmap.org/copyright
Leesburg Plaza,"526 E. Market Street , Leesburg, VA, 20176",Leesburg,VA,"3/13/2022, 8:00:00 PM",05-RC-292280,Union Win,"5/22/2022, 8:00:00 PM",39.10867868355747,-77.5516212910071,"526 East Market Street, Leesburg, VA 20176, United States of America",,526,East Market Street,,,20176,Leesburg,Loudoun County,Virginia,VA,United States,us,1,1,1,© OpenStreetMap contributors,Open Database License,https://www.openstreetmap.org/copyright
Williamsville Place,"5395-5495 Sheridan Drive , Amherst, NY, 14221",Amherst,NY,"3/13/2022, 8:00:00 PM",03-RC-292127,Union Win,"5/22/2022, 8:00:00 PM",42.9779784,-78.7340707,"Starbucks, 5395-5495 Sheridan Drive, Amherst, NY 14221, United States of America",Starbucks,5395-5495,Sheridan Drive,,,14221,Town of Amherst,Erie County,New York,NY,United States,us,1,1,1,© OpenStreetMap contributors,Open Database License,https://www.openstreetmap.org/copyright
Waban,"474 Woodward Street , Waban, MA, 2468",Waban,MA,"3/13/2022, 8:00:00 PM",01-RC-292142,Union Win,"5/18/2022, 8:00:00 PM",42.3264343,-71.2302455,"Starbucks, 474 Woodward Street, Newton, MA 02468, United States of America",Starbucks,474,Woodward Street,,Waban,02468,Newton,Middlesex County,Massachusetts,MA,United States,us,1,1,1,© OpenStreetMap contributors,Open Database License,https://www.openstreetmap.org/copyright
W.24th & Nueces (White House),"504 W 24th St Suite B, Austin, TX, 78705",Austin,TX,"3/10/2022, 7:00:00 PM",16-RC-292111,Union Win,"6/9/2022, 8:00:00 PM",30.28797025,-97.7426445137935,"504 West 24th Street, Austin, TX 78705, United States of America",,504,West 24th Street,The Drag,,78705,Austin,Travis County,Texas,TX,United States,us,1,1,1,© OpenStreetMap contributors,Open Database License,https://www.openstreetmap.org/copyright
SE Powell & 28th - Portland,"2880 SE Powell Blvd , Portland, OR, 97202",Portland,OR,"3/10/2022, 7:00:00 PM",19-RC-292093,Union Win,"5/16/2022, 8:00:00 PM",45.49729085,-122.63617020251871,"Starbucks, 2880 Southeast Powell Boulevard, Portland, OR 97202, United States of America",Starbucks,2880,Southeast Powell Boulevard,,Creston-Kenilworth,97202,Portland,Multnomah County,Oregon,OR,United States,us,1,1,1,© OpenStreetMap contributors,Open Database License,https://www.openstreetmap.org/copyright
E. 39th and Arrowhead,"18710 E. 39th St , Independence, MO, 64057",Independence,MO,"3/9/2022, 7:00:00 PM",14-RC-292066,Union Win,"5/23/2022, 8:00:00 PM",39.048551,-94.359918,"18710 East 39th Street South, Independence, MO 64057, United States of America",,18710,East 39th Street South,Blue Township,,64057,Independence,Jackson County,Missouri,MO,United States,us,0.7,1,0.7,© OpenAddresses contributors,BSD-3-Clause License,
S. Nevada and Brookside,"1455 S Nevada Ave , Colorado Springs, CO, 80905",Colorado Springs,CO,"3/9/2022, 7:00:00 PM",27-RC-292032,Union Win,"5/18/2022, 8:00:00 PM",38.81329867346939,-104.8225279489796,"1455 South Nevada Avenue, Colorado Springs, CO 80905, United States of America",,1455,South Nevada Avenue,,,80905,Colorado Springs,El Paso County,Colorado,CO,United States,us,1,1,1,© OpenStreetMap contributors,Open Database License,https://www.openstreetmap.org/copyright
16th & Tremont,"303 16th Street Ste. 100, Denver, CO, 80202",Denver,CO,"3/9/2022, 7:00:00 PM",27-RC-292041,Union Win,"5/18/2022, 8:00:00 PM",39.7427384,-104.9887055,"Noodles & Company, 303 16th Street Mall, Denver, CO 80202, United States of America",Noodles & Company,303,16th Street Mall,,16th Street Mall,80202,Denver,,Colorado,CO,United States,us,0.9,1,0.9,© OpenStreetMap contributors,Open Database License,https://www.openstreetmap.org/copyright
Augusta Exchange,"228 Robert C Daniel Parkway , Augusta, GA, 30909",Augusta,GA,"3/9/2022, 7:00:00 PM",10-RC-292010,Union Win,"4/27/2022, 8:00:00 PM",33.47620057142857,-82.07092785714286,"228 Robert C. Daniel Junior Parkway, Augusta, GA 30909, United States of America",,228,Robert C. Daniel Junior Parkway,,,30909,Augusta,Richmond County,Georgia,GA,United States,us,0.9,1,0.9,© OpenStreetMap contributors,Open Database License,https://www.openstreetmap.org/copyright
"Flint, Miller Road & I-75","3243 Miller Rd , Flint, MI, 48507",Flint,MI,"3/8/2022, 7:00:00 PM",07-RC-291984,Union Win,"6/8/2022, 8:00:00 PM",42.994392298507464,-83.72803967910448,"3243 Miller Road, Flint, MI 48503, United States of America",,3243,Miller Road,,,48503,Flint,Genesee County,Michigan,MI,United States,us,1,1,1,© OpenStreetMap contributors,Open Database License,https://www.openstreetmap.org/copyright
Grand River & Stoddard,"1141 E. Grand River , East Lansing, MI, 48823",East Lansing,MI,"3/8/2022, 7:00:00 PM",07-RC-292006,Union Win,"6/8/2022, 8:00:00 PM",42.731216,-84.467372,"1141 East Grand River Avenue, East Lansing, MI 48823, United States of America",,1141,East Grand River Avenue,East Lansing,,48823,East Lansing,Ingham County,Michigan,MI,United States,us,0.7,1,0.7,© OpenAddresses contributors,BSD-3-Clause License,
Burton & Rosemont,"2480 Burton St SE , Grand Rapids, MI, 49546",Grand Rapids,MI,"3/8/2022, 7:00:00 PM",07-RC-291974,Union Win,"5/12/2022, 8:00:00 PM",42.926766,-85.6060897,"Starbucks, 2480 Burton Street Southeast, Grand Rapids, MI 49546, United States of America",Starbucks,2480,Burton Street Southeast,,Third Ward,49546,Grand Rapids,Kent County,Michigan,MI,United States,us,1,1,1,© OpenStreetMap contributors,Open Database License,https://www.openstreetmap.org/copyright
1700 W Nursery Rd.,"1700 W Nursery Rd , Linthicum Heights, MD, 21090",Linthicum Heights,MD,"3/7/2022, 7:00:00 PM",05-RC-291899,Union Win,"5/9/2022, 8:00:00 PM",39.1996983,-76.6831502,"Jimmy John's, 1700 West Nursery Road, Linthicum, MD 21090, United States of America",Jimmy John's,1700,West Nursery Road,,,21090,Linthicum,Anne Arundel County,Maryland,MD,United States,us,1,1,1,© OpenStreetMap contributors,Open Database License,https://www.openstreetmap.org/copyright
Candlewood St. & Lakewood Blvd.,"4833 Candlewood Street , Lakewood, CA, 90712",Lakewood,CA,"3/6/2022, 7:00:00 PM",21-RC-291844,Union Win,"5/12/2022, 8:00:00 PM",33.853906224373176,-118.1364392945195,"4833 Candlewood Street, Lakewood, CA 90712, United States of America",,4833,Candlewood Street,,Lakewood Center,90712,Lakewood,Los Angeles County,California,CA,United States,us,1,1,1,© OpenStreetMap contributors,Open Database License,https://www.openstreetmap.org/copyright
Redondo & 7th,"3390 E. 7th Street , Long Beach, CA, 90804",Long Beach,CA,"3/6/2022, 7:00:00 PM",21-RC-291847,Union Win,"5/12/2022, 8:00:00 PM",33.77524908163266,-118.1526241632653,"3390 East 7th Street, Long Beach, CA 90804, United States of America",,3390,East 7th Street,,,90804,Long Beach,Los Angeles County,California,CA,United States,us,1,1,1,© OpenStreetMap contributors,Open Database License,https://www.openstreetmap.org/copyright
Penn Medicine Perelman Center,"3400 Civic Center Boulevard , Philadelphia, PA, 19104",Philadelphia,PA,"3/6/2022, 7:00:00 PM",04-RC-291798,Union Win,"5/24/2022, 8:00:00 PM",39.9473353,-75.1932406,"Scheie Eye Institute, 3400 Civic Center Boulevard, Philadelphia, PA 19104, United States of America",Scheie Eye Institute,3400,Civic Center Boulevard,University City,,19104,Philadelphia,Philadelphia County,Pennsylvania,PA,United States,us,1,1,1,© OpenStreetMap contributors,Open Database License,https://www.openstreetmap.org/copyright
NE Grand and Lloyd,"525 NE Grand Avenue , Portland, OR, 97232",Portland,OR,"3/3/2022, 7:00:00 PM",19-RC-291712,Union Win,"5/16/2022, 8:00:00 PM",45.5269396,-122.6609421996735,"Starbucks, 525 Northeast Grand Avenue, Portland, OR 97232, United States of America",Starbucks,525,Northeast Grand Avenue,,Lloyd District,97232,Portland,Multnomah County,Oregon,OR,United States,us,1,1,1,© OpenStreetMap contributors,Open Database License,https://www.openstreetmap.org/copyright
Amos Hall,"4022 Fifth Ave , Pittsburgh, PA, 15213",Pittsburgh,PA,"3/3/2022, 7:00:00 PM",06-RC-291724,Union Win,"5/5/2022, 8:00:00 PM",40.4435445,-79.9557594,"Starbucks, 4022 Fifth Avenue, Pittsburgh, PA 15213, United States of America",Starbucks,4022,Fifth Avenue,North Oakland,,15213,Pittsburgh,Allegheny County,Pennsylvania,PA,United States,us,1,1,1,© OpenStreetMap contributors,Open Database License,https://www.openstreetmap.org/copyright
5th & Oak/US Bank Tower,"555 S.W. Oak Street , Portland, OR, 97204",Portland,OR,"3/3/2022, 7:00:00 PM",19-RC-291713,Union Win,"5/16/2022, 8:00:00 PM",45.522294,-122.675073,"555 SW Oak Street, Portland, OR 97204, United States of America",,555,SW Oak Street,,Downtown,97204,Portland,Multnomah County,Oregon,OR,United States,us,1,1,1,© OpenAddresses contributors,BSD-3-Clause License,
23rd & Burnside,"2328 W. Burnside, Suite #2 , Portland, OR, 97210",Portland,OR,"3/3/2022, 7:00:00 PM",19-RC-291715,Union Win,"5/16/2022, 8:00:00 PM",45.523474,-122.69997,"2328 West Burnside Street, Portland, OR 97210, United States of America",,2328,West Burnside Street,,Goose Hollow,97210,Portland,Multnomah County,Oregon,OR,United States,us,0.7,1,0.7,© OpenAddresses contributors,BSD-3-Clause License,
Valley River Drive - Eugene,"1115 Valley River Dr , Eugene, OR, 97401",Eugene,OR,"2/28/2022, 7:00:00 PM",19-RC-291441,Union Win,"5/4/2022, 8:00:00 PM",44.07105008305024,-123.106106909465,"1115 Valley River Drive, Eugene, OR 97401, United States of America",,1115,Valley River Drive,,,97401,Eugene,Lane County,Oregon,OR,United States,us,1,1,1,© OpenStreetMap contributors,Open Database License,https://www.openstreetmap.org/copyright
Summit,"2 Beechwood Road , Summit, NJ, 7901",Summit,NJ,"2/28/2022, 7:00:00 PM",22-RC-291520,Union Win,"5/1/2022, 8:00:00 PM",40.717035,-74.357671,"2 Beechwood Road, Summit, NJ 07901, United States of America",,2,Beechwood Road,Overlook,,07901,Summit,Union County,New Jersey,NJ,United States,us,1,1,1,© OpenStreetMap contributors,Open Database License,https://www.openstreetmap.org/copyright
Indian School & 107 Ave,"10585 W. Indian School Rd , Avondale, AZ, 85392",Avondale,AZ,"2/28/2022, 7:00:00 PM",28-RC-291566,Union Win,"5/4/2022, 8:00:00 PM",33.4932164,-112.286667,"Starbucks, 10585 West Indian School Road, Avondale, AZ 85392, United States of America",Starbucks,10585,West Indian School Road,,,85392,Avondale,Maricopa County,Arizona,AZ,United States,us,1,1,1,© OpenStreetMap contributors,Open Database License,https://www.openstreetmap.org/copyright
W. 11th & Acorn Park - Eugene,"3110 W. 11th Avenue , Eugene, OR, 97402",Eugene,OR,"2/27/2022, 7:00:00 PM",19-RC-291410,Union Win,"5/4/2022, 8:00:00 PM",44.04785379548814,-123.1387118565399,"3110 West 11th Avenue, Eugene, OR 97402, United States of America",,3110,West 11th Avenue,,,97402,Eugene,Lane County,Oregon,OR,United States,us,1,1,1,© OpenStreetMap contributors,Open Database License,https://www.openstreetmap.org/copyright
Minneapolis - 47th and Cedar,"4712 Cedar Ave , Minneapolis, MN, 55407",Minneapolis,MN,"2/27/2022, 7:00:00 PM",18-RC-291359,Union Win,"5/1/2022, 8:00:00 PM",44.917419,-93.247689,"4712 Cedar Avenue South, Minneapolis, MN 55407, United States of America",,4712,Cedar Avenue South,Minneapolis,Northrup,55407,Minneapolis,Hennepin County,Minnesota,MN,United States,us,0.7,1,0.7,© OpenAddresses contributors,BSD-3-Clause License,
Cooper Point Village- Olympia,"315 Cooper Point Road NW 101, Olympia, WA, 98502",Olympia,WA,"2/24/2022, 7:00:00 PM",19-RC-291290,Union Win,"4/28/2022, 8:00:00 PM",47.047803,-122.942312,"315 Cooper Point Road NW, Olympia, WA 98502, United States of America",,315,Cooper Point Road NW,,,98502,Olympia,Thurston County,Washington,WA,United States,us,0.8,1,0.8,© OpenAddresses contributors,BSD-3-Clause License,
"7th Street & Bell, Phoenix","17045 N 7th St , Phoenix, AZ, 85022",Phoenix,AZ,"2/24/2022, 7:00:00 PM",28-RC-291280,Union Win,"5/4/2022, 8:00:00 PM",33.642016749999996,-112.0649899,"17045 North 7th Street, Phoenix, AZ 85022, United States of America",,17045,North 7th Street,The Town Square,,85022,Phoenix,Maricopa County,Arizona,AZ,United States,us,1,1,1,© OpenStreetMap contributors,Open Database License,https://www.openstreetmap.org/copyright
1087 White Horse Ave,"1087 White Horse Avenue , Hamilton Township, NJ, 8610",Hamilton Township,NJ,"2/24/2022, 7:00:00 PM",22-RC-291263,Union Win,"5/1/2022, 8:00:00 PM",40.20385063636364,-74.69633493939395,"1087 White Horse Avenue, Hamilton Township, NJ 08610, United States of America",,1087,White Horse Avenue,,,08610,Hamilton Township,Mercer County,New Jersey,NJ,United States,us,1,1,1,© OpenStreetMap contributors,Open Database License,https://www.openstreetmap.org/copyright
Holman Road,"9999 Holman Rd NW , Seattle, WA, 98117",Seattle,WA,"2/23/2022, 7:00:00 PM",19-RC-291186,Union Win,"4/28/2022, 8:00:00 PM",47.7015499,-122.3638697,"9999 Holman Road Northwest, Seattle, WA 98117, United States of America",,9999,Holman Road Northwest,Crown Hill,Greenwood,98117,Seattle,King County,Washington,WA,United States,us,1,1,1,© OpenStreetMap contributors,Open Database License,https://www.openstreetmap.org/copyright
"2003 S. Main Street, Farmville","2003 S. Main Street , Farmville, VA, 23901",Farmville,VA,"2/23/2022, 7:00:00 PM",05-RC-291198,Union Win,"5/2/2022, 8:00:00 PM",37.27416609432396,-78.40140765035179,"2003 South Main Street, Farmville, VA 23901, United States of America",,2003,South Main Street,,The Shoppes at College Park,23901,Farmville,Prince Edward County,Virginia,VA,United States,us,1,1,1,© OpenStreetMap contributors,Open Database License,https://www.openstreetmap.org/copyright
1980 San Marco Boulevard,"1980 San Marco Blvd. , Jacksonville, FL, 32207",Jacksonville,FL,"2/23/2022, 7:00:00 PM",12-RC-291207,Union Win,"5/9/2022, 8:00:00 PM",30.30407905,-81.65478135000001,"1980 San Marco Boulevard, Jacksonville, FL 32207, United States of America",,1980,San Marco Boulevard,,San Marco,32207,Jacksonville,Duval County,Florida,FL,United States,us,1,1,1,© OpenStreetMap contributors,Open Database License,https://www.openstreetmap.org/copyright
Broad & Willow Lawn,"1601 Willow Lawn Dr. 700-P, Richmond, VA, 23230",Richmond,VA,"2/22/2022, 7:00:00 PM",05-RC-291103,Union Win,"4/18/2022, 8:00:00 PM",37.58194,-77.498205,"1601 Willow Lawn Drive, Richmond, VA 23230, United States of America",,1601,Willow Lawn Drive,,,23230,Richmond,Henrico County,Virginia,VA,United States,us,0.567,1,0.567,© OpenAddresses contributors,BSD-3-Clause License,
63rd & Grand,"1123 NW 63rd Avenue , Nichols Hills, OK, 73116",Nichols Hills,OK,"2/21/2022, 7:00:00 PM",14-RC-290942,Union Win,"7/24/2022, 8:00:00 PM",35.536816,-97.547528,"99999 NW 63rd St & N Pennsylvania Avenue, Nichols Hills, OK 73116, United States of America",,99999,NW 63rd St & N Pennsylvania Avenue,,,73116,Nichols Hills,Oklahoma County,Oklahoma,OK,United States,us,0.32805000000000006,1,0.6561000000000001,© OpenAddresses contributors,BSD-3-Clause License,
"Mayfield & Lee, Cleveland Hts.","3093 Mayfield Road , Cleveland Heights, OH, 44118",Cleveland Heights,OH,"2/21/2022, 7:00:00 PM",08-RC-291055,Union Win,"7/18/2022, 8:00:00 PM",41.51601214634147,-81.56880985365854,"3093 Mayfield Road, Cleveland Heights, OH 44118, United States of America",,3093,Mayfield Road,Heights Rockefeller,,44118,Cleveland Heights,Cuyahoga County,Ohio,OH,United States,us,1,1,1,© OpenStreetMap contributors,Open Database License,https://www.openstreetmap.org/copyright
McDill & Crossroads,"120 Crossroads Dr , Plover, WI, 54467",Plover,WI,"2/21/2022, 7:00:00 PM",18-RC-291082,Union Win,"5/3/2022, 8:00:00 PM",44.496971,-89.5130532,"Starbucks, 120 Crossroads Drive, Village of Plover, WI 54467, United States of America",Starbucks,120,Crossroads Drive,,Crossroads Commons,54467,Village of Plover,Portage County,Wisconsin,WI,United States,us,1,1,1,© OpenStreetMap contributors,Open Database License,https://www.openstreetmap.org/copyright
"W.117th, Clifton Blvd","11623 Clifton Boulevard , Cleveland, OH, 44102",Cleveland,OH,"2/21/2022, 7:00:00 PM",08-RC-291066,Union Win,"7/18/2022, 8:00:00 PM",41.48725224489796,-81.76781665306123,"11623 Clifton Boulevard, Cleveland, OH 44102, United States of America",,11623,Clifton Boulevard,,Edgewater,44102,Cleveland,Cuyahoga County,Ohio,OH,United States,us,1,1,1,© OpenStreetMap contributors,Open Database License,https://www.openstreetmap.org/copyright
Kendall Square,"120 Broadway 6 Cambridge Center, Cambridge, MA, 2142",Cambridge,MA,"2/16/2022, 7:00:00 PM",01-RC-290851,Union Win,"6/29/2022, 8:00:00 PM",42.363858,-71.087833,"6 Cambridge Center, Cambridge, MA 02142, United States of America",,6,Cambridge Center,Cambridge,Area 2/MIT,02142,Cambridge,Middlesex County,Massachusetts,MA,United States,us,0.9,1,1,© OpenAddresses contributors,BSD-3-Clause License,
I-85 & Pelham Pkwy,"3905 Pelham Road , Greenville, SC, 29615",Greenville,SC,"2/15/2022, 7:00:00 PM",10-RC-290683,Union Win,"5/15/2022, 8:00:00 PM",34.85974751656606,-82.26413506193259,"3905 Pelham Road, Greenville County, SC 29615, United States of America",,3905,Pelham Road,,,29615,,Greenville County,South Carolina,SC,United States,us,1,1,1,© OpenStreetMap contributors,Open Database License,https://www.openstreetmap.org/copyright
San Jose Blvd & Ricky Drive,"11441 San Jose Blvd , Jacksonville, FL, 32223",Jacksonville,FL,"2/15/2022, 7:00:00 PM",12-RC-290746,Union Win,"5/9/2022, 8:00:00 PM",30.166128,-81.632183,"11441 San Jose Boulevard, Jacksonville, FL 32223, United States of America",,11441,San Jose Boulevard,,,32223,Jacksonville,Duval County,Florida,FL,United States,us,1,1,1,© OpenStreetMap contributors,Open Database License,https://www.openstreetmap.org/copyright
Massapequa Village Square,"4301 Merrick Road , Massapequa, NY, 11758",Massapequa,NY,"2/15/2022, 7:00:00 PM",29-RC-290794,Union Win,"5/2/2022, 8:00:00 PM",40.6670103,-73.4748564,"4301 Merrick Road, Massapequa, NY 11758, United States of America",,4301,Merrick Road,,,11758,Massapequa,Nassau County,New York,NY,United States,us,1,1,1,© OpenStreetMap contributors,Open Database License,https://www.openstreetmap.org/copyright
Carytown,"3555 West Cary St , Richmond, VA, 23221",Richmond,VA,"2/14/2022, 7:00:00 PM",05-RC-290586,Union Win,"6/29/2022, 8:00:00 PM",37.55569171422182,-77.48810611621833,"3555 West Cary Street, Richmond, VA 23221, United States of America",,3555,West Cary Street,Carytown,Museum District,23221,Richmond,,Virginia,VA,United States,us,1,1,1,© OpenStreetMap contributors,Open Database License,https://www.openstreetmap.org/copyright
Pike Street Roastery,"1124 Pike St , Seattle, WA, 98101",Seattle,WA,"2/13/2022, 7:00:00 PM",19-RC-290608,Union Win,"4/20/2022, 8:00:00 PM",47.6140077,-122.32833038964822,"Starbucks Reserve, 1124 Pike Street, Seattle, WA 98101, United States of America",Starbucks Reserve,1124,Pike Street,Central Business District,First Hill,98101,Seattle,King County,Washington,WA,United States,us,1,1,1,© OpenStreetMap contributors,Open Database License,https://www.openstreetmap.org/copyright
Arthur Ashe Blvd & Myers,"1017 N Boulevard , Richmond, VA, 23230",Richmond,VA,"2/13/2022, 7:00:00 PM",05-RC-290507,Union Win,"6/29/2022, 8:00:00 PM",37.5643387,-77.4689246,"Starbucks, 1017 North Arthur Ashe Boulevard, Richmond, VA 23230, United States of America",Starbucks,1017,North Arthur Ashe Boulevard,Scott's Addition,Scott's Addition,23230,Richmond,City of Richmond,Virginia,VA,United States,us,0.3969,1,0.3969,© OpenStreetMap contributors,Open Database License,https://www.openstreetmap.org/copyright
The Bridges Roanoke,"8 Old Whitmore Ave , Roanoke, VA, 24016",Roanoke,VA,"2/13/2022, 7:00:00 PM",10-RC-290521,Union Win,"6/26/2022, 8:00:00 PM",37.256824,-79.941271,"8 Old Whitmore Avenue SE, Roanoke, VA 24016, United States of America",,8,Old Whitmore Avenue SE,,,24016,Roanoke,City of Roanoke,Virginia,VA,United States,us,0.7,1,0.7,© OpenAddresses contributors,BSD-3-Clause License,
Westchester Commons,"15605 WC Commons Way Bldg 10, Midlothian, VA, 23113",Midlothian,VA,"2/13/2022, 7:00:00 PM",05-RC-290518,Union Win,"4/18/2022, 8:00:00 PM",37.5062673,-77.649268,"Midlothian, VA 23113, United States of America",Midlothian,,,,,23113,Midlothian,Chesterfield County,Virginia,VA,United States,us,0.25,1,,© OpenStreetMap contributors,Open Database License,https://www.openstreetmap.org/copyright
Peoria-University & Main,"1200 West Main St. , Peoria, IL, 61606",Peoria,IL,"2/13/2022, 7:00:00 PM",25-RC-290625,Union Win,"4/25/2022, 8:00:00 PM",40.6986316,-89.6119125,"Bradley University Police, 1200 West Main Street, Peoria, IL 61606, United States of America",Bradley University Police,1200,West Main Street,University East,,61606,Peoria,Peoria County,Illinois,IL,United States,us,1,1,1,© OpenStreetMap contributors,Open Database License,https://www.openstreetmap.org/copyright
300 Snelling,"300 Snelling Suite C, St. Paul, MN, 55105",St. Paul,MN,"2/13/2022, 7:00:00 PM",18-RC-290585,Union Win,"4/26/2022, 8:00:00 PM",44.9325723,-93.1668024,"Nashville Coop, 300 Snelling Avenue South, Saint Paul, MN 55105, United States of America",Nashville Coop,300,Snelling Avenue South,,Macalester - Groveland,55105,Saint Paul,Ramsey County,Minnesota,MN,United States,us,0.81,1,0.81,© OpenStreetMap contributors,Open Database License,https://www.openstreetmap.org/copyright
Huguenot Village Shopping Center,"2059 Huguenot Road , Richmond, VA, 23235",Richmond,VA,"2/13/2022, 7:00:00 PM",05-RC-290510,Union Win,"4/18/2022, 8:00:00 PM",37.5213823,-77.61221528754943,"Starbucks, 2059 Huguenot Road, Bon Air, VA 23235, United States of America",Starbucks,2059,Huguenot Road,,,23235,Bon Air,Chesterfield County,Virginia,VA,United States,us,1,1,1,© OpenStreetMap contributors,Open Database License,https://www.openstreetmap.org/copyright
Northwest Hwy & Feinberg Dr,"620 Northwest Hwy , Cary, IL, 60013",Cary,IL,"2/13/2022, 7:00:00 PM",25-RC-290609,Union Win,"4/25/2022, 8:00:00 PM",42.21879187869132,-88.2595964909487,"620 Northwest Highway, Cary, IL 60013, United States of America",,620,Northwest Highway,,,60013,Cary,McHenry County,Illinois,IL,United States,us,1,1,1,© OpenStreetMap contributors,Open Database License,https://www.openstreetmap.org/copyright
Howell & Puetz,"8880 South Howell Ave. , Oak Creek, WI, 53154",Oak Creek,WI,"2/13/2022, 7:00:00 PM",18-RC-290576,Union Win,"4/26/2022, 8:00:00 PM",42.88182412085843,-87.91227733595278,"8880 South Howell Avenue, Oak Creek, WI 53154, United States of America",,8880,South Howell Avenue,,,53154,Oak Creek,Milwaukee County,Wisconsin,WI,United States,us,1,1,1,© OpenStreetMap contributors,Open Database License,https://www.openstreetmap.org/copyright
Bloomfield Liberty Ave,"4765 Liberty Avenue , Pittsburgh, PA, 15224",Pittsburgh,PA,"2/10/2022, 7:00:00 PM",06-RC-290464,Union Win,"4/12/2022, 8:00:00 PM",40.4610681,-79.9476312,"Starbucks, 4765 Liberty Avenue, Pittsburgh, PA 15224, United States of America",Starbucks,4765,Liberty Avenue,Bloomfield,,15224,Pittsburgh,Allegheny County,Pennsylvania,PA,United States,us,1,1,1,© OpenStreetMap contributors,Open Database License,https://www.openstreetmap.org/copyright
Lafayette & 8th Street,"13-25 Astor Place , New York, NY, 10003",New York,NY,"2/9/2022, 7:00:00 PM",02-RC-290378,Union Win,"4/28/2022, 8:00:00 PM",40.729626,-73.9900403,"Astor Place, New York, NY 10003, United States of America",Astor Place,,Astor Place,East Village,Manhattan,10003,New York,New York County,New York,NY,United States,us,0.5,1,1,© OpenStreetMap contributors,Open Database License,https://www.openstreetmap.org/copyright
Caesar's Bay Shopping Center,"8973 Bay Parkway , Brooklyn, NY, 11214",Brooklyn,NY,"2/9/2022, 7:00:00 PM",29-RC-290386,Union Win,"5/2/2022, 8:00:00 PM",40.59346525,-74.0012008234695,"8973 Bay Parkway, New York, NY 11214, United States of America",,8973,Bay Parkway,,Brooklyn,11214,New York,,New York,NY,United States,us,1,1,1,© OpenStreetMap contributors,Open Database License,https://www.openstreetmap.org/copyright
New York Roastery,"61 9th Ave. , New York, NY, 10011",New York,NY,"2/8/2022, 7:00:00 PM",02-RC-290354,Union Win,"3/31/2022, 8:00:00 PM",40.7415376,-74.0051662,"61 9th Avenue, New York, NY 10011, United States of America",,61,9th Avenue,Chelsea District,Manhattan,10011,New York,New York County,New York,NY,United States,us,1,1,1,© OpenStreetMap contributors,Open Database License,https://www.openstreetmap.org/copyright
Jackson and Zeeb,"120 S. Zeeb Rd Suite 101, Ann Arbor, MI, 48103",Ann Arbor,MI,"2/7/2022, 7:00:00 PM",07-RC-290303,Union Win,"6/6/2022, 8:00:00 PM",42.285278698647076,-83.83856662529705,"120 South Zeeb Road, Scio Township, MI 48103, United States of America",,120,South Zeeb Road,,,48103,Scio Township,Washtenaw County,Michigan,MI,United States,us,1,1,1,© OpenStreetMap contributors,Open Database License,https://www.openstreetmap.org/copyright
Lk Lansing & Kerry St,"2624 Lake Lansing Rd , Lansing, MI, 48912",Lansing,MI,"2/7/2022, 7:00:00 PM",07-RC-290290,Union Win,"6/8/2022, 8:00:00 PM",42.760668033557046,-84.51454940939597,"2624 Lake Lansing Road, Lansing Charter Township, MI 48912, United States of America",,2624,Lake Lansing Road,,Eastwood Towne Center,48912,Lansing Charter Township,Ingham County,Michigan,MI,United States,us,1,1,1,© OpenStreetMap contributors,Open Database License,https://www.openstreetmap.org/copyright
"Ann Arbor, Main & Liberty","300 South Main Street , Ann Arbor, MI, 48104",Ann Arbor,MI,"2/7/2022, 7:00:00 PM",07-RC-290295,Union Win,"6/6/2022, 8:00:00 PM",42.2794671,-83.7487946,"Starbucks, 300 South Main Street, Ann Arbor, MI 48104, United States of America",Starbucks,300,South Main Street,,,48104,Ann Arbor,Washtenaw County,Michigan,MI,United States,us,1,1,1,© OpenStreetMap contributors,Open Database License,https://www.openstreetmap.org/copyright
State & Liberty,"222 S State , Ann Arbor, MI, 48104",Ann Arbor,MI,"2/7/2022, 7:00:00 PM",07-RC-290304,Union Win,"6/6/2022, 8:00:00 PM",42.279534,-83.741047,"222 South State Street, Ann Arbor, MI 48104, United States of America",,222,South State Street,Ann Arbor,State Street,48104,Ann Arbor,Washtenaw County,Michigan,MI,United States,us,0.7,1,0.7,© OpenAddresses contributors,BSD-3-Clause License,
410 & Vance Jackson,"2639 NW Loop 410, Suite 106 , San Antonio, TX, 78230",San Antonio,TX,"2/7/2022, 7:00:00 PM",16-RC-290302,Union Win,"6/13/2022, 8:00:00 PM",29.511057285714287,-98.53526793877552,"2639 Northwest Loop 410, San Antonio, TX 78230, United States of America",,2639,Northwest Loop 410,,,78230,San Antonio,Bexar County,Texas,TX,United States,us,1,1,1,© OpenStreetMap contributors,Open Database License,https://www.openstreetmap.org/copyright
20th & Market,"1900 Market Street , Philadelphia, PA, 19103",Philadelphia,PA,"2/3/2022, 7:00:00 PM",04-RC-290056,Union Win,"5/24/2022, 8:00:00 PM",39.9533311,-75.1727292,"Wawa, 1900 Market Street, Philadelphia, PA 19103, United States of America",Wawa,1900,Market Street,Rittenhouse Square,Center City,19103,Philadelphia,Philadelphia County,Pennsylvania,PA,United States,us,1,1,1,© OpenStreetMap contributors,Open Database License,https://www.openstreetmap.org/copyright
Delta & Green Acres,"3003 N Delta Hwy 301, Eugene, OR, 97408",Eugene,OR,"2/3/2022, 7:00:00 PM",19-RC-290060,Union Win,"4/27/2022, 8:00:00 PM",44.094832,-123.09664,"3003 North Delta Highway, Coburg, OR 97408, United States of America",,3003,North Delta Highway,,,97408,Coburg,Lane County,Oregon,OR,United States,us,0.63,1,0.63,© OpenAddresses contributors,BSD-3-Clause License,
34th & Walnut,"3401 WALNUT ST , Philadelphia, PA, 19104",Philadelphia,PA,"2/3/2022, 7:00:00 PM",04-RC-290064,Union Win,"5/24/2022, 8:00:00 PM",39.953259349999996,-75.19329915092548,"3401 Walnut Street, Philadelphia, PA 19104, United States of America",,3401,Walnut Street,University City,,19104,Philadelphia,Philadelphia County,Pennsylvania,PA,United States,us,1,1,1,© OpenStreetMap contributors,Open Database License,https://www.openstreetmap.org/copyright
U of O Erb Memorial Student Union,"1395 University St. , Eugene, OR, 97403",Eugene,OR,"2/3/2022, 7:00:00 PM",19-RC-290145,Union Win,"4/27/2022, 8:00:00 PM",44.0449377,-123.0738161,"Townshend's Teahouse, 1395 University Street, Eugene, OR 97403, United States of America",Townshend's Teahouse,1395,University Street,,,97403,Eugene,Lane County,Oregon,OR,United States,us,1,1,1,© OpenStreetMap contributors,Open Database License,https://www.openstreetmap.org/copyright
Overland Park - 75th & I35,"10201 West 75th Street , Overland Park, KS, 66204",Overland Park,KS,"2/1/2022, 7:00:00 PM",14-RC-289926,Union Win,"4/7/2022, 8:00:00 PM",38.99289287681159,-94.70380696376812,"10201 West 75th Street, Overland Park, KS 66204, United States of America",,10201,West 75th Street,,,66204,Overland Park,Johnson County,Kansas,KS,United States,us,1,1,1,© OpenStreetMap contributors,Open Database License,https://www.openstreetmap.org/copyright
Ocean & Water - Santa Cruz,"745 Ocean Street , Santa Cruz, CA, 95060",Santa Cruz,CA,"1/31/2022, 7:00:00 PM",32-RC-289855,Union Win,"5/10/2022, 8:00:00 PM",36.979163437905896,-122.02127273768942,"745 Ocean Street, Santa Cruz, CA 95060, United States of America",,745,Ocean Street,,Downtown,95060,Santa Cruz,Santa Cruz County,California,CA,United States,us,1,1,1,© OpenStreetMap contributors,Open Database License,https://www.openstreetmap.org/copyright
"Brighton, Monroe & Clover","2750 Monroe Avenue , Rochester, NY, 14618",Rochester,NY,"1/31/2022, 7:00:00 PM",03-RC-289802,Union Win,"4/6/2022, 8:00:00 PM",43.1131345,-77.5491785,"2750 Monroe Avenue, Town/Village of East Rochester, NY 14618, United States of America",,2750,Monroe Avenue,,,14618,Town/Village of East Rochester,Monroe County,New York,NY,United States,us,1,1,1,© OpenStreetMap contributors,Open Database License,https://www.openstreetmap.org/copyright
"Ithaca, S. Meadow St","722 South Meadow Street , Ithaca, NY, 14850",Ithaca,NY,"1/31/2022, 7:00:00 PM",03-RC-289796,Union Win,"4/7/2022, 8:00:00 PM",42.4308025,-76.5089415,"722 South Meadow Street, City of Ithaca, NY 14850, United States of America",,722,South Meadow Street,,,14850,City of Ithaca,Tompkins County,New York,NY,United States,us,1,1,1,© OpenStreetMap contributors,Open Database License,https://www.openstreetmap.org/copyright
Ithaca on The Commons,"130 E. Seneca Street , Ithaca, NY, 14850",Ithaca,NY,"1/31/2022, 7:00:00 PM",03-RC-289805,Union Win,"4/7/2022, 8:00:00 PM",42.4406978,-76.4971609,"130 East Seneca Street, City of Ithaca, NY 14850, United States of America",,130,East Seneca Street,,,14850,City of Ithaca,Tompkins County,New York,NY,United States,us,1,1,1,© OpenStreetMap contributors,Open Database License,https://www.openstreetmap.org/copyright
Garden Home Marketplace,"7315 SW Garden Home Road , Portland, OR, 97223",Portland,OR,"1/31/2022, 7:00:00 PM",19-RC-289854,Union Win,"6/1/2022, 8:00:00 PM",45.4666772,-122.7518568,"7315 Southwest Garden Home Road, Portland, OR 97223, United States of America",,7315,Southwest Garden Home Road,,Ashcreek,97223,Portland,Washington County,Oregon,OR,United States,us,1,1,1,© OpenStreetMap contributors,Open Database License,https://www.openstreetmap.org/copyright
